[{"headline": "Zika Outbreak Hits Miami", "country": "United States", "city": "Miami", "id": "4164138", "latitude": 25.77427, "longitude": -80.19366}, {"headline": "Could Zika Reach New York City?", "country": "United States", "city": "New York City", "id": "5128581", "latitude": 40.71427, "longitude": -74.00597}, {"headline": "First Case of Zika in Miami Beach", "country": "United States", "city": "Miami Beach", "id": "4164143", "latitude": 25.79065, "longitude": -80.13005}, {"headline": "Mystery Virus Spreads in Recife, Brazil", "country": "Brazil", "city": "Recife", "id": "3390760", "latitude": -8.05389, "longitude": -34.88111}, {"headline": "Dallas man comes down with case of Zika", "country": "United States", "city": "Dallas", "id": "4684888", "latitude": 32.78306, "longitude": -96.80667}, {"headline": "Trinidad confirms first Zika case", "country": "Bolivia", "city": "Trinidad", "id": "3902377", "latitude": -14.83333, "longitude": -64.9}, {"headline": "Zika Concerns are Spreading in Houston", "country": "United States", "city": "Houston", "id": "4699066", "latitude": 29.76328, "longitude": -95.36327}, {"headline": "Geneve Scientists Battle to Find Cure", "country": null, "city": "Geneve", "id": "None", "latitude": null, "longitude": null}, {"headline": "The CDC in Atlanta is Growing Worried", "country": "United States", "city": "Atlanta", "id": "4180439", "latitude": 33.749, "longitude": -84.38798}, {"headline": "Zika Infested Monkeys in Sao Paulo", "country": null, "city": "Sao Paulo", "id": "None", "latitude": null, "longitude": null}, {"headline": "Brownsville teen contracts Zika virus", "country": "United States", "city": "Brownsville", "id": "4676740", "latitude": 25.90175, "longitude": -97.49748}, {"headline": "Mosquito control efforts in St. Louis take new tactics with Zika threat", "country": "United States", "city": "St. Louis", "id": "4407066", "latitude": 38.62727, "longitude": -90.19789}, {"headline": "San Juan reports 1st U.S. Zika-related death amid outbreak", "country": "Argentina", "city": "San Juan", "id": "3837213", "latitude": -31.5375, "longitude": -68.53639}, {"headline": "Flu outbreak in Galveston, Texas", "country": "United States", "city": "Galveston", "id": "4692883", "latitude": 29.30135, "longitude": -94.7977}, {"headline": "Zika alert \u2013 Manila now threatened", "country": "Philippines", "city": "Manila", "id": "1701668", "latitude": 14.6042, "longitude": 120.9822}, {"headline": "Zika afflicts 7 in Iloilo City", "country": "Philippines", "city": "Iloilo", "id": "1711005", "latitude": 10.69694, "longitude": 122.56444}, {"headline": "New Los Angeles Hairstyle goes Viral", "country": "United States", "city": "Los Angeles", "id": "5368361", "latitude": 34.05223, "longitude": -118.24368}, {"headline": "Louisiana Zika cases up to 26", "country": null, "city": null, "id": "None", "latitude": null, "longitude": null}, {"headline": "Orlando volunteers aid Zika research", "country": "United States", "city": "Orlando", "id": "4167147", "latitude": 28.53834, "longitude": -81.37924}, {"headline": "Zika infects pregnant woman in Cebu", "country": null, "city": null, "id": "None", "latitude": null, "longitude": null}, {"headline": "Chicago's First Zika Case Confirmed", "country": "United States", "city": "Chicago", "id": "4887398", "latitude": 41.85003, "longitude": -87.65005}, {"headline": "Tampa Bay Area Zika Case Count Climbs", "country": "United States", "city": "Tampa", "id": "4174757", "latitude": 27.94752, "longitude": -82.45843}, {"headline": "Bad Water Leads to Sickness in Flint, Michigan", "country": "United States", "city": "Flint", "id": "4992982", "latitude": 43.01253, "longitude": -83.68746}, {"headline": "Baltimore plans for Zika virus", "country": "United States", "city": "Baltimore", "id": "4347778", "latitude": 39.29038, "longitude": -76.61219}, {"headline": "London Health Unit Tracks Mad Cow Disease", "country": "United Kingdom", "city": "London", "id": "2643743", "latitude": 51.50853, "longitude": -0.12574}, {"headline": "Zika cases in Vietnam's Ho Chi Minh City surge", "country": "Vietnam", "city": "Ho Chi Minh City", "id": "1566083", "latitude": 10.82302, "longitude": 106.62965}, {"headline": "Philadelphia experts track pandemic", "country": "United States", "city": "Philadelphia", "id": "4560349", "latitude": 39.95233, "longitude": -75.16379}, {"headline": "Flu season hits Boston", "country": "United States", "city": "Boston", "id": "4930956", "latitude": 42.35843, "longitude": -71.05977}, {"headline": "Scientists in Paris to look for answers", "country": "France", "city": "Paris", "id": "2988507", "latitude": 48.85341, "longitude": 2.3488}, {"headline": "Key Zika Findings in San Diego Institute", "country": "United States", "city": "San Diego", "id": "5391811", "latitude": 32.71571, "longitude": -117.16472}, {"headline": "Thailand-Zika Virus in Bangkok", "country": "Thailand", "city": "Bangkok", "id": "1609350", "latitude": 13.75398, "longitude": 100.50144}, {"headline": "Beijing team cracks Zika secret", "country": "China", "city": "Beijing", "id": "1816670", "latitude": 39.9075, "longitude": 116.39723}, {"headline": "Zika spreading to Salvador", "country": "Brazil", "city": "Salvador", "id": "3450554", "latitude": -12.97111, "longitude": -38.51083}, {"headline": "Kuala Lumpur is Hit By Zika Threat", "country": "Malaysia", "city": "Kuala Lumpur", "id": "1735161", "latitude": 3.1412, "longitude": 101.68653}, {"headline": "First Zika case confirmed in Yangon", "country": "Myanmar", "city": "Yangon", "id": "1298824", "latitude": 16.80528, "longitude": 96.15611}, {"headline": "Tallahassee Doctors Discuss Zika Virus", "country": "United States", "city": "Tallahassee", "id": "4174715", "latitude": 30.43826, "longitude": -84.28073}, {"headline": "Zika Virus Reaches San Francisco", "country": "United States", "city": "San Francisco", "id": "5391959", "latitude": 37.77493, "longitude": -122.41942}, {"headline": "New Vaccine on Trial in Bethesda District", "country": "United States", "city": "Bethesda", "id": "4348599", "latitude": 38.98067, "longitude": -77.10026}, {"headline": "Townsville Zika tests inconclusive", "country": "Australia", "city": "Townsville", "id": "2146142", "latitude": -19.26639, "longitude": 146.80569}, {"headline": "Mandaluyong City under Siege by Virus", "country": "Philippines", "city": "Mandaluyong City", "id": "1701966", "latitude": 14.5832, "longitude": 121.0409}, {"headline": "Hepatitis E re-emerges in Santa Rosa", "country": "Philippines", "city": "Santa Rosa", "id": "1687894", "latitude": 14.31222, "longitude": 121.11139}, {"headline": "Zika worries in San Salvador", "country": "El Salvador", "city": "San Salvador", "id": "3583361", "latitude": 13.68935, "longitude": -89.18718}, {"headline": "Zika virus reported in Cleveland", "country": "United States", "city": "Cleveland", "id": "5150529", "latitude": 41.4995, "longitude": -81.69541}, {"headline": "More Zika patients reported in Austin", "country": "United States", "city": "Austin", "id": "4671654", "latitude": 30.26715, "longitude": -97.74306}, {"headline": "Zika outbreak in Piracicaba, Brazil", "country": "Brazil", "city": "Piracicaba", "id": "3453643", "latitude": -22.72528, "longitude": -47.64917}, {"headline": "Lima tries to address Zika Concerns", "country": "Peru", "city": "Lima", "id": "3936456", "latitude": -12.04318, "longitude": -77.02824}, {"headline": "More people in Toronto are infected with Hepatitis E every year", "country": "Canada", "city": "Toronto", "id": "6167865", "latitude": 43.70011, "longitude": -79.4163}, {"headline": "18 new Zika Cases in Bogota", "country": null, "city": "Bogota", "id": "None", "latitude": null, "longitude": null}, {"headline": "Spanish Flu Sighted in Antigua", "country": null, "city": null, "id": "None", "latitude": null, "longitude": null}, {"headline": "Brisbane is infested with Meningitis", "country": "Australia", "city": "Brisbane", "id": "2174003", "latitude": -27.46794, "longitude": 153.02809}, {"headline": "Cholera outbreak in Dakar", "country": "Senegal", "city": "Dakar", "id": "2253354", "latitude": 14.6937, "longitude": -17.44406}, {"headline": "Zika Virus Transmission Detected in Havana", "country": "Cuba", "city": "Havana", "id": "3553478", "latitude": 23.13302, "longitude": -82.38304}, {"headline": "Zika symtomps spotted in Key West", "country": "United States", "city": "Key West", "id": "4160812", "latitude": 24.55524, "longitude": -81.78163}, {"headline": "Case of Measles Reported in Vancouver", "country": "Canada", "city": "Vancouver", "id": "6173331", "latitude": 49.24966, "longitude": -123.11934}, {"headline": "Seattle scientists get $500,000 grant to pursue Zika vaccine New 7:50 pm", "country": "United States", "city": "Seattle", "id": "5809844", "latitude": 47.60621, "longitude": -122.33207}, {"headline": "Nashville takes precautions against Zika", "country": "United States", "city": "Nashville", "id": "4644585", "latitude": 36.16589, "longitude": -86.78444}, {"headline": "Saint Croix under Zika threat", "country": "U.S. Virgin Islands", "city": "Saint Croix", "id": "4796512", "latitude": 17.72751, "longitude": -64.74698}, {"headline": "Fort Collins Encounters Severe Symptoms of Gonorrhea", "country": "United States", "city": "Fort Collins", "id": "5577147", "latitude": 40.58526, "longitude": -105.08442}, {"headline": "Zika surfaces in Klang, Malaysia", "country": "Malaysia", "city": "Klang", "id": "1732905", "latitude": 3.03667, "longitude": 101.44333}, {"headline": "Rumors about Meningitis spreading in Guatemala City have been refuted", "country": "Guatemala", "city": "Guatemala City", "id": "3598132", "latitude": 14.64072, "longitude": -90.51327}, {"headline": "Madison lab developing vaccine against Zika virus [The Wisconsin State Journal]", "country": "United States", "city": "Madison", "id": "5261457", "latitude": 43.07305, "longitude": -89.40123}, {"headline": "New Zika Case Confirmed in Sarasota County", "country": "United States", "city": "Sarasota", "id": "4172131", "latitude": 27.33643, "longitude": -82.53065}, {"headline": "Lower Hospitalization in Entebbe after Rabies Vaccine becomes Mandatory", "country": "Uganda", "city": "Entebbe", "id": "233508", "latitude": 0.05621, "longitude": 32.47949}, {"headline": "Carnival under threat in Rio De Janeiro due to Zika outbreak", "country": null, "city": null, "id": "None", "latitude": null, "longitude": null}, {"headline": "Second Zika Paitient in Brasilia", "country": null, "city": "Brasilia", "id": "None", "latitude": null, "longitude": null}, {"headline": "Jacksonville man hit by Zika", "country": "United States", "city": "Jacksonville", "id": "4160021", "latitude": 30.33218, "longitude": -81.65565}, {"headline": "Schools in Shenzhen Closed Due to Malaria Outbreak", "country": "China", "city": "Shenzhen", "id": "1795565", "latitude": 22.54554, "longitude": 114.0683}, {"headline": "Caracas patient dies", "country": "Venezuela", "city": "Caracas", "id": "3646738", "latitude": 10.48801, "longitude": -66.87919}, {"headline": "More Quezon City Zika Transmissions", "country": "Philippines", "city": "Quezon City", "id": "1692192", "latitude": 14.6488, "longitude": 121.0509}, {"headline": "Schools in Sydney Closed Due to Respiratory Syncytial Virus Outbreak", "country": "Australia", "city": "Sydney", "id": "2147714", "latitude": -33.86785, "longitude": 151.20732}, {"headline": "Mumbai's Health Minister warns of more Zika cases", "country": "India", "city": "Mumbai", "id": "1275339", "latitude": 19.07283, "longitude": 72.88261}, {"headline": "Pune woman diagnosed with Zika", "country": "India", "city": "Pune", "id": "1259229", "latitude": 18.51957, "longitude": 73.85535}, {"headline": "Hospitals in Hanoi fill up with Zika patients", "country": "Vietnam", "city": "Hanoi", "id": "1581130", "latitude": 21.0245, "longitude": 105.84117}, {"headline": "Zika case reported in Oton", "country": null, "city": null, "id": "None", "latitude": null, "longitude": null}, {"headline": "Authorities are Worried about the Spread of Bronchitis in Silver Spring", "country": "United States", "city": "Silver Spring", "id": "4369596", "latitude": 38.99067, "longitude": -77.02609}, {"headline": "Zika: Delhi for strict monitoring", "country": "India", "city": "Delhi", "id": "1273294", "latitude": 28.65195, "longitude": 77.23149}, {"headline": "Hillsborough uses innovative trap against Zika 20 minutes ago", "country": null, "city": null, "id": "None", "latitude": null, "longitude": null}, {"headline": "Belize City under threat from Zika", "country": "Belize", "city": "Belize City", "id": "3582677", "latitude": 17.49952, "longitude": -88.19756}, {"headline": "Student sick in Campinas, Brazil", "country": "Brazil", "city": "Campinas", "id": "3467865", "latitude": -22.90556, "longitude": -47.06083}, {"headline": "More Zika cases in Soyapango", "country": "El Salvador", "city": "Soyapango", "id": "3583096", "latitude": 13.71024, "longitude": -89.13989}, {"headline": "Authorities are Worried about the Spread of Mad Cow Disease in Rome", "country": "Italy", "city": "Rome", "id": "3169070", "latitude": 41.89193, "longitude": 12.51133}, {"headline": "Seoul confirms 14th Zika infection", "country": "South Korea", "city": "Seoul", "id": "1835848", "latitude": 37.566, "longitude": 126.9784}, {"headline": "Hepatitis B Vaccine is now Required in Quebec", "country": null, "city": "Quebec", "id": "None", "latitude": null, "longitude": null}, {"headline": "Zika outbreak spreads to Mexico City", "country": "Mexico", "city": "Mexico City", "id": "3530597", "latitude": 19.42847, "longitude": -99.12766}, {"headline": "Rochester authorities confirmed the spread of Dengue", "country": "United States", "city": "Rochester", "id": "5134086", "latitude": 43.15478, "longitude": -77.61556}, {"headline": "El Paso fighting Zika", "country": "United States", "city": "El Paso", "id": "5520993", "latitude": 31.75872, "longitude": -106.48693}, {"headline": "Visitor to Cucuta contracts Zika", "country": null, "city": "Cucuta", "id": "None", "latitude": null, "longitude": null}, {"headline": "Zika now spreading through Jakarta", "country": "Indonesia", "city": "Jakarta", "id": "1642911", "latitude": -6.21462, "longitude": 106.84513}, {"headline": "Maka City Experiences Influenza Outbreak", "country": null, "city": null, "id": "None", "latitude": null, "longitude": null}, {"headline": "Salt Lake City tests new cure for Respiratory Syncytial Virus", "country": "United States", "city": "Salt Lake City", "id": "5780993", "latitude": 40.76078, "longitude": -111.89105}, {"headline": "Zika San Antonio Patient Speaks Out", "country": "United States", "city": "San Antonio", "id": "4726206", "latitude": 29.42412, "longitude": -98.49363}, {"headline": "Ebola outbreak in Kampala", "country": "Uganda", "city": "Kampala", "id": "232422", "latitude": 0.31628, "longitude": 32.58219}, {"headline": "Precautionary Zika measures in Rockhampton", "country": "Australia", "city": "Rockhampton", "id": "2151437", "latitude": -23.38032, "longitude": 150.50595}, {"headline": "Zika arrives in Tegucigalpa", "country": "Honduras", "city": "Tegucigalpa", "id": "3600949", "latitude": 14.0818, "longitude": -87.20681}, {"headline": "New Zika Case Confirmed in Belo Horizonte", "country": "Brazil", "city": "Belo Horizonte", "id": "3470127", "latitude": -19.92083, "longitude": -43.93778}, {"headline": "Case of Hepatitis E Reported in Melbourne", "country": "Australia", "city": "Melbourne", "id": "2158177", "latitude": -37.814, "longitude": 144.96332}, {"headline": "First Columbus Zika case", "country": "United States", "city": "Columbus", "id": "4509177", "latitude": 39.96118, "longitude": -82.99879}, {"headline": "New medicine wipes out Tuberculosis in Taipei", "country": "Taiwan", "city": "Taipei", "id": "1668341", "latitude": 25.04776, "longitude": 121.53185}, {"headline": "Zika Patient in Seminole, Florida", "country": "United States", "city": "Seminole", "id": "4172434", "latitude": 27.83975, "longitude": -82.79121}, {"headline": "Antipolo under threat from Zika Virus", "country": "Philippines", "city": "Antipolo", "id": "1730501", "latitude": 14.62578, "longitude": 121.12251}, {"headline": "Spreading Zika reaches Bacoor", "country": "Philippines", "city": "Bacoor", "id": "1729524", "latitude": 14.45896, "longitude": 120.93851}, {"headline": "Can Zika make it here to Vero Beach?", "country": null, "city": "Can", "id": "None", "latitude": null, "longitude": null}, {"headline": "Zika afflicts patient in Calamba", "country": "Philippines", "city": "Calamba", "id": "1720681", "latitude": 14.21167, "longitude": 121.16528}, {"headline": "Hollywood Outbreak Film Premieres", "country": "United States", "city": "Hollywood", "id": "5357527", "latitude": 34.09834, "longitude": -118.32674}, {"headline": "Petaling Jaya man ill from Zika", "country": "Malaysia", "city": "Petaling Jaya", "id": "1735158", "latitude": 3.10726, "longitude": 101.60671}, {"headline": "Malaria is Spreading in Johannesburg", "country": "South Africa", "city": "Johannesburg", "id": "993800", "latitude": -26.20227, "longitude": 28.04363}, {"headline": "Authorities are Worried about the Spread of Norovirus in Buenos Aires", "country": "Argentina", "city": "Buenos Aires", "id": "3435910", "latitude": -34.61315, "longitude": -58.37723}, {"headline": "Guangzhou Patient in Critical Condition after Contracting Swine Flu", "country": "China", "city": "Guangzhou", "id": "1809858", "latitude": 23.11667, "longitude": 113.25}, {"headline": "Doral hit by Deadly Virus", "country": "United States", "city": "Doral", "id": "4153471", "latitude": 25.81954, "longitude": -80.35533}, {"headline": "Tokyo Encounters Severe Symptoms of Meningitis", "country": "Japan", "city": "Tokyo", "id": "1850147", "latitude": 35.6895, "longitude": 139.69171}, {"headline": "Rabies Exposure in Hamilton", "country": "Canada", "city": "Hamilton", "id": "5969782", "latitude": 43.25011, "longitude": -79.84963}, {"headline": "Authorities are Worried about the Spread of Influenza in Savannah", "country": "United States", "city": "Savannah", "id": "4221552", "latitude": 32.08354, "longitude": -81.09983}, {"headline": "Zika Outbreak in Hyderabad", "country": "India", "city": "Hyderabad", "id": "1269843", "latitude": 17.38405, "longitude": 78.45636}, {"headline": "Birmingham Residents Recieve Rabies vaccine", "country": "United Kingdom", "city": "Birmingham", "id": "2655603", "latitude": 52.48142, "longitude": -1.89983}, {"headline": "Is Zika virus in Majuro?", "country": "Marshall Islands", "city": "Majuro", "id": "2113779", "latitude": 7.08971, "longitude": 171.38027}, {"headline": "Spreading Zika ruining Cancun fun", "country": null, "city": "Cancun", "id": "None", "latitude": null, "longitude": null}, {"headline": "Cancun hit by Outbreak of Party Fever!", "country": null, "city": "Cancun", "id": "None", "latitude": null, "longitude": null}, {"headline": "HIV has Arrived in Fairfax", "country": "United States", "city": "Fairfax", "id": "4758023", "latitude": 38.84622, "longitude": -77.30637}, {"headline": "Spanish Flu Outbreak in Barcelona", "country": "Spain", "city": "Barcelona", "id": "3128760", "latitude": 41.38879, "longitude": 2.15899}, {"headline": "Santa Barbara tests new cure for Hepatitis C", "country": "United States", "city": "Santa Barbara", "id": "5392952", "latitude": 34.42083, "longitude": -119.69819}, {"headline": "Spring break ruined by Zika in Fort Lauderdale", "country": "United States", "city": "Spring", "id": "4733624", "latitude": 30.07994, "longitude": -95.41716}, {"headline": "Villavicencio under Zika threat", "country": "Colombia", "city": "Villavicencio", "id": "3665900", "latitude": 4.142, "longitude": -73.62664}, {"headline": "Two more Zika cases confirmed in Laredo", "country": "United States", "city": "Laredo", "id": "4705349", "latitude": 27.50641, "longitude": -99.50754}, {"headline": "New Delhi Addressing Zika Concerns", "country": "India", "city": "New Delhi", "id": "1261481", "latitude": 28.63576, "longitude": 77.22445}, {"headline": "New Zika Case in Kota Kinabalu, Malaysia", "country": "Malaysia", "city": "Kota Kinabalu", "id": "1733432", "latitude": 5.9749, "longitude": 116.0724}, {"headline": "New medicine wipes out West Nile Virus in Ventura", "country": "United States", "city": "Ventura", "id": "5405878", "latitude": 34.27834, "longitude": -119.29317}, {"headline": "Meningitis re-emerges in Nassau", "country": "Bahamas", "city": "Nassau", "id": "3571824", "latitude": 25.05823, "longitude": -77.34306}, {"headline": "Zika reaches Johor Bahru, Malaysia", "country": "Malaysia", "city": "Johor Bahru", "id": "1732752", "latitude": 1.4655, "longitude": 103.7578}, {"headline": "Nha Trang Zika Outbreak", "country": "Vietnam", "city": "Nha Trang", "id": "1572151", "latitude": 12.24507, "longitude": 109.19432}, {"headline": "First Zika Case in Cincinnati", "country": "United States", "city": "Cincinnati", "id": "4508722", "latitude": 39.12711, "longitude": -84.51439}, {"headline": "Molo Cholera Spread Causing Concern", "country": "Kenya", "city": "Molo", "id": "186315", "latitude": -0.24849, "longitude": 35.73194}, {"headline": "Norovirus Exposure in Hong Kong", "country": "Hong Kong", "city": "Hong Kong", "id": "1819729", "latitude": 22.27832, "longitude": 114.17469}, {"headline": "19 new Zika Cases in Sengkang", "country": "Indonesia", "city": "Sengkang", "id": "1626921", "latitude": -4.1279, "longitude": 120.0297}, {"headline": "Zika cases concern Charlotte residents", "country": "United States", "city": "Charlotte", "id": "4460243", "latitude": 35.22709, "longitude": -80.84313}, {"headline": "Batangas Tourism Takes a Hit as Virus Spreads", "country": "Philippines", "city": "Batangas", "id": "1726280", "latitude": 13.7567, "longitude": 121.0584}, {"headline": "Johannesburg Patient in Critical Condition after Contracting Pneumonia", "country": "South Africa", "city": "Johannesburg", "id": "993800", "latitude": -26.20227, "longitude": 28.04363}, {"headline": "Outbreak of Zika in Bacolod City", "country": "Philippines", "city": "Bacolod City", "id": "1729564", "latitude": 10.66667, "longitude": 122.95}, {"headline": "Respiratory Syncytial Virus Keeps Spreading in Masaya", "country": "Nicaragua", "city": "Masaya", "id": "3617723", "latitude": 11.97444, "longitude": -86.09417}, {"headline": "Spike of Pneumonia Cases in Springfield", "country": "United States", "city": "Springfield", "id": "4409896", "latitude": 37.21533, "longitude": -93.29824}, {"headline": "More Zika patients reported in Mcallen", "country": null, "city": null, "id": "None", "latitude": null, "longitude": null}, {"headline": "Zika case reported in Jupiter", "country": "United States", "city": "Jupiter", "id": "4160610", "latitude": 26.93422, "longitude": -80.09421}, {"headline": "Zika virus confirmed in Westchester", "country": "United States", "city": "Westchester", "id": "4177965", "latitude": 25.75482, "longitude": -80.32727}, {"headline": "Authorities are Worried about the Spread of Tuberculosis in Abuja", "country": "Nigeria", "city": "Abuja", "id": "2352778", "latitude": 9.05785, "longitude": 7.49508}, {"headline": "Rumors about Hepatitis D Spreading in San Juan Capistrano have been Refuted", "country": "United States", "city": "San Juan Capistrano", "id": "5392229", "latitude": 33.50169, "longitude": -117.66255}, {"headline": "The Spread of Measles in Spokane has been Confirmed", "country": "United States", "city": "Spokane", "id": "5811696", "latitude": 47.65966, "longitude": -117.42908}, {"headline": "Zika alert for Rio Grande Valley residents", "country": "Brazil", "city": "Rio Grande", "id": "3451138", "latitude": -32.035, "longitude": -52.09861}, {"headline": "Zika symptoms spotted in Colombo", "country": "Sri Lanka", "city": "Colombo", "id": "1248991", "latitude": 6.93548, "longitude": 79.84868}, {"headline": "West Nile Virus Outbreak in Louisville", "country": "United States", "city": "Louisville", "id": "4299276", "latitude": 38.25424, "longitude": -85.75941}, {"headline": "New details in Baton Rouge cop killings", "country": "United States", "city": "Baton Rouge", "id": "4315588", "latitude": 30.44332, "longitude": -91.18747}, {"headline": "Hepatitis B has not Left Florence", "country": "Italy", "city": "Florence", "id": "3176959", "latitude": 43.77925, "longitude": 11.24626}, {"headline": "More Zika patients reported in Pensacola", "country": "United States", "city": "Pensacola", "id": "4168228", "latitude": 30.42131, "longitude": -87.21691}, {"headline": "Outbreak of Zika in Corpus Christi", "country": "United States", "city": "Corpus Christi", "id": "4683416", "latitude": 27.80058, "longitude": -97.39638}, {"headline": "How to Avoid Rhinovirus in Lemon Grove", "country": "United States", "city": "Lemon Grove", "id": "5365893", "latitude": 32.74255, "longitude": -117.03142}, {"headline": "Rumors about Rotavirus spreading in Huntsville have been refuted", "country": "United States", "city": "Huntsville", "id": "4068590", "latitude": 34.7304, "longitude": -86.58594}, {"headline": "Rhinovirus has Arrived in Athens", "country": "Greece", "city": "Athens", "id": "264371", "latitude": 37.98376, "longitude": 23.72784}, {"headline": "Outbreak of Zika in Panama City", "country": "United States", "city": "Panama City", "id": "4167694", "latitude": 30.15946, "longitude": -85.65983}, {"headline": "West Nile Virus Outbreak in Saint Johns", "country": null, "city": null, "id": "None", "latitude": null, "longitude": null}, {"headline": "Measles has not Left Brooklyn", "country": "United States", "city": "Brooklyn", "id": "5110302", "latitude": 40.6501, "longitude": -73.94958}, {"headline": "Escondido neighborhood to get sprayed for Zika virus", "country": "United States", "city": "Escondido", "id": "5346827", "latitude": 33.11921, "longitude": -117.08642}, {"headline": "Zika in Belmont, Belmont worry", "country": "United States", "city": "Belmont", "id": "5327455", "latitude": 37.52021, "longitude": -122.2758}, {"headline": "Influenza has not Left Sacramento", "country": "United States", "city": "Sacramento", "id": "5389489", "latitude": 38.58157, "longitude": -121.4944}, {"headline": "Veracruz hit by Zika Concerns", "country": "Mexico", "city": "Veracruz", "id": "3514783", "latitude": 19.18095, "longitude": -96.1429}, {"headline": "Case of Mumps Reported in Dayton", "country": "United States", "city": "Dayton", "id": "4509884", "latitude": 39.75895, "longitude": -84.19161}, {"headline": "Authorities are Worried about the Spread of Dengue in Kingston", "country": "Jamaica", "city": "Kingston", "id": "3489854", "latitude": 17.99702, "longitude": -76.79358}, {"headline": "Gainesville Deals with Disease Concerns", "country": "United States", "city": "Gainesville", "id": "4156404", "latitude": 29.65163, "longitude": -82.32483}, {"headline": "Montevideo Encounters Severe Symptoms of Rotavirus", "country": "Uruguay", "city": "Montevideo", "id": "3441575", "latitude": -34.90328, "longitude": -56.18816}, {"headline": "Varicella Keeps Spreading in Detroit", "country": "United States", "city": "Detroit", "id": "4990729", "latitude": 42.33143, "longitude": -83.04575}, {"headline": "Arhus is infested with Bronchitis", "country": null, "city": "Arhus", "id": "None", "latitude": null, "longitude": null}, {"headline": "Zika Troubles come to Niteroi", "country": null, "city": "Niteroi", "id": "None", "latitude": null, "longitude": null}, {"headline": "Zika cases in Singapore reach 393", "country": "Singapore", "city": "Singapore", "id": "1880252", "latitude": 1.28967, "longitude": 103.85007}, {"headline": "Manhattan Residents Recieve HIV vaccine", "country": "United States", "city": "Manhattan", "id": "5125771", "latitude": 40.78343, "longitude": -73.96625}, {"headline": "Zika arrives in Miri", "country": "Malaysia", "city": "Miri", "id": "1738050", "latitude": 4.39928, "longitude": 113.99163}, {"headline": "Rumors about Dengue Spreading in Syracuse have been Refuted", "country": "United States", "city": "Syracuse", "id": "5140405", "latitude": 43.04812, "longitude": -76.14742}, {"headline": "Will Norovirus vaccine help Raleigh?", "country": "United States", "city": "Raleigh", "id": "4487042", "latitude": 35.7721, "longitude": -78.63861}, {"headline": "Lower Hospitalization in Auckland after Hepatitis D Vaccine becomes Mandatory", "country": "New Zealand", "city": "Auckland", "id": "2193733", "latitude": -36.84853, "longitude": 174.76349}, {"headline": "How to Avoid Gonorrhea in Shreveport", "country": "United States", "city": "Shreveport", "id": "4341513", "latitude": 32.52515, "longitude": -93.75018}, {"headline": "Ithaca is infested with Dengue", "country": "United States", "city": "Ithaca", "id": "5122432", "latitude": 42.44063, "longitude": -76.49661}, {"headline": "Will MCD vaccine help Strasbourg?", "country": "France", "city": "Strasbourg", "id": "2973783", "latitude": 48.58392, "longitude": 7.74553}, {"headline": "New medicine wipes out Measles in Fresno", "country": "United States", "city": "Fresno", "id": "5350937", "latitude": 36.74773, "longitude": -119.77237}, {"headline": "BREAKING \u2013 Zika in Missoula", "country": "United States", "city": "Missoula", "id": "5666639", "latitude": 46.87215, "longitude": -113.994}, {"headline": "Zika arrives in Santos", "country": "Brazil", "city": "Santos", "id": "3449433", "latitude": -23.96083, "longitude": -46.33361}, {"headline": "Sick Livestock Leads to Serious Trouble for Belfort", "country": "France", "city": "Belfort", "id": "3033791", "latitude": 47.64218, "longitude": 6.85385}, {"headline": "Hepatitis E has not Left Libreville", "country": "Gabon", "city": "Libreville", "id": "2399697", "latitude": 0.39241, "longitude": 9.45356}, {"headline": "New medicine wipes out Chikungunya in Tucson", "country": "United States", "city": "Tucson", "id": "5318313", "latitude": 32.22174, "longitude": -110.92648}, {"headline": "Norovirus has Arrived in Winnipeg", "country": "Canada", "city": "Winnipeg", "id": "6183235", "latitude": 49.8844, "longitude": -97.14704}, {"headline": "Hepatitis B Comes to Kansas City", "country": "United States", "city": "Kansas City", "id": "4393217", "latitude": 39.09973, "longitude": -94.57857}, {"headline": "More Patients in Cambridge are Getting Diagnosed with Chickenpox", "country": "United Kingdom", "city": "Cambridge", "id": "2653941", "latitude": 52.2, "longitude": 0.11667}, {"headline": "Chikungunya Exposure in Toledo", "country": "United States", "city": "Toledo", "id": "5174035", "latitude": 41.66394, "longitude": -83.55521}, {"headline": "Is Lafayette prepared to combat Zika?", "country": "United States", "city": "Lafayette", "id": "4330145", "latitude": 30.22409, "longitude": -92.01984}, {"headline": "Mecca tests new cure for Chikungunya", "country": "Saudi Arabia", "city": "Mecca", "id": "104515", "latitude": 21.42664, "longitude": 39.82563}, {"headline": "Zika arrives in San Benito", "country": "Guatemala", "city": "San Benito", "id": "3590389", "latitude": 16.91675, "longitude": -89.91898}, {"headline": "Syphilis Outbreak in Harrisburg", "country": "United States", "city": "Harrisburg", "id": "5192726", "latitude": 40.2737, "longitude": -76.88442}, {"headline": "Zika Arrives in North Miami", "country": "United States", "city": "North Miami", "id": "4166232", "latitude": 25.89009, "longitude": -80.18671}, {"headline": "Urbana Encounters Severe Symptoms of Meningitis", "country": "United States", "city": "Urbana", "id": "4914570", "latitude": 40.11059, "longitude": -88.20727}, {"headline": "Pittsburgh Residents Recieve Norovirus vaccine", "country": "United States", "city": "Pittsburgh", "id": "5206379", "latitude": 40.44062, "longitude": -79.99589}, {"headline": "Chikungunya Hits Denver", "country": "United States", "city": "Denver", "id": "5419384", "latitude": 39.73915, "longitude": -104.9847}, {"headline": "Zika case recorded in Tunapuna \u00bb", "country": "Trinidad and Tobago", "city": "Tunapuna", "id": "3573576", "latitude": 10.65245, "longitude": -61.38878}, {"headline": "Spike of Respiratory Syncytial Virus Cases in Mandalay", "country": "Myanmar", "city": "Mandalay", "id": "1311874", "latitude": 21.97473, "longitude": 96.08359}, {"headline": "HIV Keeps Spreading in Boulder", "country": "United States", "city": "Boulder", "id": "5574991", "latitude": 40.01499, "longitude": -105.27055}, {"headline": "More Zika patients reported in Joao Pessoa", "country": null, "city": "Joao Pessoa", "id": "None", "latitude": null, "longitude": null}, {"headline": "Will Tuberculosis vaccine help Rockville?", "country": "United States", "city": "Rockville", "id": "4367175", "latitude": 39.084, "longitude": -77.15276}, {"headline": "Mad Cow Disease Re-emerges in Chatham", "country": "United Kingdom", "city": "Chatham", "id": "2653305", "latitude": 51.37891, "longitude": 0.52786}, {"headline": "Zika Virus Arrives in Ontario", "country": "United States", "city": "Ontario", "id": "5379439", "latitude": 34.06334, "longitude": -117.65089}, {"headline": "Mad Cow Disease Hits Naples", "country": "Italy", "city": "Naples", "id": "3172394", "latitude": 40.85216, "longitude": 14.26811}, {"headline": "More Zika patients reported in Davao", "country": "Philippines", "city": "Davao", "id": "1715348", "latitude": 7.07306, "longitude": 125.61278}, {"headline": "The Spread of Chikungunya in Arcadia has been Confirmed", "country": "United States", "city": "Arcadia", "id": "5324477", "latitude": 34.13973, "longitude": -118.03534}, {"headline": "Oxford tests new cure for HIV", "country": "United Kingdom", "city": "Oxford", "id": "2640729", "latitude": 51.75222, "longitude": -1.25596}, {"headline": "Outbreak of Zika in Stephenville", "country": "United States", "city": "Stephenville", "id": "4734350", "latitude": 32.2207, "longitude": -98.20226}, {"headline": "Providence Encounters Severe Symptoms of Dengue", "country": "United States", "city": "Providence", "id": "5224151", "latitude": 41.82399, "longitude": -71.41283}, {"headline": "Tests negative on Windsor Zika carriers", "country": "Canada", "city": "Windsor", "id": "6182962", "latitude": 42.30008, "longitude": -83.01654}, {"headline": "Zika battle outlined at Valdosta meeting", "country": "United States", "city": "Valdosta", "id": "4228147", "latitude": 30.83334, "longitude": -83.28032}, {"headline": "Zika case reported in Coral Gables", "country": "United States", "city": "Coral Gables", "id": "4151871", "latitude": 25.72149, "longitude": -80.26838}, {"headline": "Hepatitis C Outbreak in Danbury", "country": "United States", "city": "Danbury", "id": "4832353", "latitude": 41.39482, "longitude": -73.45401}, {"headline": "Chickenpox has Arrived in Chula Vista", "country": "United States", "city": "Chula Vista", "id": "5336899", "latitude": 32.64005, "longitude": -117.0842}, {"headline": "Syphilis Hits Jefferson", "country": "United States", "city": "Jefferson", "id": "4766586", "latitude": 38.86456, "longitude": -77.18776}, {"headline": "Will HIV vaccine help Las Vegas?", "country": "United States", "city": "Las Vegas", "id": "5506956", "latitude": 36.17497, "longitude": -115.13722}, {"headline": "Zika arrives in West Palm Beach", "country": "United States", "city": "West Palm Beach", "id": "4177887", "latitude": 26.71534, "longitude": -80.05337}, {"headline": "Mobile authorities confirmed the spread of Bronchitis", "country": "United States", "city": "Mobile", "id": "4076598", "latitude": 30.69436, "longitude": -88.04305}, {"headline": "Zika spreads to Daytona Beach", "country": "United States", "city": "Daytona Beach", "id": "4152872", "latitude": 29.21081, "longitude": -81.02283}, {"headline": "Lausanne Residents Recieve Meningitis vaccine", "country": "Switzerland", "city": "Lausanne", "id": "2659994", "latitude": 46.516, "longitude": 6.63282}, {"headline": "Rhinovirus Comes to San Jose", "country": "United States", "city": "San Jose", "id": "5392171", "latitude": 37.33939, "longitude": -121.89496}, {"headline": "Spike of Chlamydia Cases in Farmington", "country": "United States", "city": "Farmington", "id": "5467328", "latitude": 36.72806, "longitude": -108.21869}, {"headline": "Authorities are Worried about the Spread of Rotavirus in Union", "country": "United States", "city": "Union", "id": "5105608", "latitude": 40.6976, "longitude": -74.2632}, {"headline": "Rumors about Hepatitis D spreading in Albany have been refuted", "country": "United States", "city": "Albany", "id": "5106834", "latitude": 42.65258, "longitude": -73.75623}, {"headline": "Zika symptoms spotted in Bello", "country": "Colombia", "city": "Bello", "id": "3688928", "latitude": 6.33732, "longitude": -75.55795}, {"headline": "Will Meningitis vaccine help Hamburg?", "country": "Germany", "city": "Hamburg", "id": "2911298", "latitude": 53.57532, "longitude": 10.01534}, {"headline": "Madera Patient in Critical Condition after Contracting Rabies", "country": "United States", "city": "Madera", "id": "5369568", "latitude": 36.96134, "longitude": -120.06072}, {"headline": "Zika Virus Detected in Lubbock", "country": "United States", "city": "Lubbock", "id": "5525577", "latitude": 33.57786, "longitude": -101.85517}, {"headline": "Malaria re-emerges in Boise", "country": "United States", "city": "Boise", "id": "5586437", "latitude": 43.6135, "longitude": -116.20345}, {"headline": "Varicella re-emerges in Lagos", "country": "Nigeria", "city": "Lagos", "id": "2332459", "latitude": 6.45407, "longitude": 3.39467}, {"headline": "Vericella spreading in Ibadan", "country": "Nigeria", "city": "Ibadan", "id": "2339354", "latitude": 7.37756, "longitude": 3.90591}, {"headline": "Schools in Birmingham Closed Due to Measles Outbreak", "country": "United Kingdom", "city": "Birmingham", "id": "2655603", "latitude": 52.48142, "longitude": -1.89983}, {"headline": "How to Avoid Hepatitis B in Waldorf", "country": "United States", "city": "Waldorf", "id": "4372599", "latitude": 38.62456, "longitude": -76.93914}, {"headline": "More people in Mclean are infected with Hepatitis A every year", "country": null, "city": null, "id": "None", "latitude": null, "longitude": null}, {"headline": "Malaria Exposure in Sussex", "country": null, "city": null, "id": "None", "latitude": null, "longitude": null}, {"headline": "Tuberculosis Outbreak in Newark", "country": "United States", "city": "Newark", "id": "5101798", "latitude": 40.73566, "longitude": -74.17237}, {"headline": "Zika Virus Sparks 'International Concern'", "country": "United States", "city": "Sparks", "id": "5512862", "latitude": 39.53491, "longitude": -119.75269}, {"headline": "Spike of Chlamydia Cases in Berlin", "country": "Germany", "city": "Berlin", "id": "2950159", "latitude": 52.52437, "longitude": 13.41053}, {"headline": "Zika-carrying mosquitoes discovered in Ardmore", "country": "United States", "city": "Ardmore", "id": "4529469", "latitude": 34.17426, "longitude": -97.14363}, {"headline": "Zika Mosquitoes May Have Bred in Bromeliads, Florida Officials Say", "country": "Cuba", "city": "Florida", "id": "3558771", "latitude": 21.52536, "longitude": -78.22579}, {"headline": "More Livestock in Fontainebleau are infected with Mad Cow Disease", "country": "France", "city": "Fontainebleau", "id": "3018074", "latitude": 48.40908, "longitude": 2.70177}, {"headline": "Frisco Woman Tests Positive For Zika Virus", "country": "United States", "city": "Frisco", "id": "4692559", "latitude": 33.15067, "longitude": -96.82361}, {"headline": "Authorities are Worried about the Spread of Norovirus in Dubai", "country": "United Arab Emirates", "city": "Dubai", "id": "292223", "latitude": 25.07725, "longitude": 55.30927}, {"headline": "Benton Residents Recieve Pneumonia vaccine", "country": "United States", "city": "Benton", "id": "4101241", "latitude": 34.56454, "longitude": -92.58683}, {"headline": "Case of Hepatitis A Reported in Calgary", "country": "Canada", "city": "Calgary", "id": "5913490", "latitude": 51.05011, "longitude": -114.08529}, {"headline": "Zika Outbreak in Pinewood", "country": "United States", "city": "Pinewood", "id": "4168659", "latitude": 25.86898, "longitude": -80.21699}, {"headline": "Will Swine Flu vaccine help Ljubljana?", "country": "Slovenia", "city": "Ljubljana", "id": "3196359", "latitude": 46.05108, "longitude": 14.50513}, {"headline": "Bronchitis re-emerges in Tehran", "country": "Iran", "city": "Tehran", "id": "112931", "latitude": 35.69439, "longitude": 51.42151}, {"headline": "Greenwich Establishes Zika Task Force", "country": null, "city": null, "id": "None", "latitude": null, "longitude": null}, {"headline": "Mad Cow case in Murcia", "country": "Spain", "city": "Murcia", "id": "2513416", "latitude": 37.98704, "longitude": -1.13004}, {"headline": "Mad Cow Disease Spreads to Margate", "country": "United Kingdom", "city": "Margate", "id": "2643044", "latitude": 51.38132, "longitude": 1.38617}, {"headline": "Zika Strikes St. Petersburg", "country": "United States", "city": "St. Petersburg", "id": "4171563", "latitude": 27.77086, "longitude": -82.67927}, {"headline": "Will West Nile Virus vaccine help Parsons?", "country": null, "city": null, "id": "None", "latitude": null, "longitude": null}, {"headline": "Will the Mad Cow Outbreak Reach Vienna?", "country": "Austria", "city": "Vienna", "id": "2761369", "latitude": 48.20849, "longitude": 16.37208}, {"headline": "More Patients in Orange are Getting Diagnosed with Chickenpox", "country": "United States", "city": "Orange", "id": "5379513", "latitude": 33.78779, "longitude": -117.85311}, {"headline": "Lower Hospitalization in Richmond after Mumps Vaccine becomes Mandatory", "country": "United States", "city": "Richmond", "id": "4781708", "latitude": 37.55376, "longitude": -77.46026}, {"headline": "Meningitis re-emerges in Medina", "country": "Saudi Arabia", "city": "Medina", "id": "109223", "latitude": 24.46861, "longitude": 39.61417}, {"headline": "Yulee takes a hit from Spreading Sickness", "country": null, "city": null, "id": "None", "latitude": null, "longitude": null}, {"headline": "Four cases of Zika in Hidalgo County", "country": "Mexico", "city": "Hidalgo", "id": "4022735", "latitude": 25.97205, "longitude": -100.45029}, {"headline": "Zika symptoms spotted in Hollywood", "country": "United States", "city": "Hollywood", "id": "5357527", "latitude": 34.09834, "longitude": -118.32674}, {"headline": "Zika arrives in Oaxaca", "country": "Mexico", "city": "Oaxaca", "id": "3522507", "latitude": 17.06542, "longitude": -96.72365}, {"headline": "More people in Durham are infected with Chlamydia every year", "country": "United States", "city": "Durham", "id": "4464368", "latitude": 35.99403, "longitude": -78.89862}, {"headline": "Authorities are Worried about the Spread of Gonorrhea in Taoyuan City", "country": "Taiwan", "city": "Taoyuan City", "id": "6696918", "latitude": 24.99368, "longitude": 121.29696}, {"headline": "Swine Flu re-emerges in La Jolla", "country": "United States", "city": "La Jolla", "id": "5363943", "latitude": 32.84727, "longitude": -117.2742}, {"headline": "Tuberculosis Outbreak in Hartford", "country": "United States", "city": "Hartford", "id": "4835797", "latitude": 41.76371, "longitude": -72.68509}, {"headline": "Rumors about Mumps Spreading in New Bedford have been Refuted", "country": "United States", "city": "New Bedford", "id": "4945121", "latitude": 41.63526, "longitude": -70.92701}, {"headline": "Respiratory Syncytial Virus Vaccine is now Required in Tulsa", "country": "United States", "city": "Tulsa", "id": "4553433", "latitude": 36.15398, "longitude": -95.99277}, {"headline": "More people in Indianapolis are infected with Norovirus every year", "country": "United States", "city": "Indianapolis", "id": "4259418", "latitude": 39.76838, "longitude": -86.15804}, {"headline": "Lower Hospitalization in Dhaka after Measles Vaccine becomes Mandatory", "country": "Bangladesh", "city": "Dhaka", "id": "1185241", "latitude": 23.7104, "longitude": 90.40744}, {"headline": "Albany Residents Recieve Respiratory Syncytial Virus vaccine", "country": "United States", "city": "Albany", "id": "5106834", "latitude": 42.65258, "longitude": -73.75623}, {"headline": "The Spread of Chikungunya in Davidson has been Confirmed", "country": null, "city": null, "id": "None", "latitude": null, "longitude": null}, {"headline": "Rotavirus Vaccine is now Required in Starkville", "country": "United States", "city": "Starkville", "id": "4447161", "latitude": 33.45049, "longitude": -88.81961}, {"headline": "Schools in Yaounde Closed Due to Mumps Outbreak", "country": null, "city": "Yaounde", "id": "None", "latitude": null, "longitude": null}, {"headline": "More people in Nadi are infected with HIV every year", "country": "Fiji", "city": "Nadi", "id": "2202064", "latitude": -17.80309, "longitude": 177.41617}, {"headline": "Tocumen tests new cure for Hepatitis A", "country": "Panama", "city": "Tocumen", "id": "3700563", "latitude": 9.08939, "longitude": -79.3831}, {"headline": "Phnom Penh hit by Zika Threat", "country": "Cambodia", "city": "Phnom Penh", "id": "1821306", "latitude": 11.56245, "longitude": 104.91601}, {"headline": "Zika Troubles come to Harlingen", "country": "United States", "city": "Harlingen", "id": "4696233", "latitude": 26.19063, "longitude": -97.6961}, {"headline": "Zika spreads to Barranquilla", "country": "Colombia", "city": "Barranquilla", "id": "3689147", "latitude": 10.96854, "longitude": -74.78132}, {"headline": "Milwaukee authorities confirmed the spread of Rhinovirus", "country": "United States", "city": "Milwaukee", "id": "5263045", "latitude": 43.0389, "longitude": -87.90647}, {"headline": "Mad Cow Disease Hits Rotterdam", "country": "Netherlands", "city": "Rotterdam", "id": "2747891", "latitude": 51.9225, "longitude": 4.47917}, {"headline": "Zika symptoms spotted in Arlington", "country": "United States", "city": "Arlington", "id": "4671240", "latitude": 32.73569, "longitude": -97.10807}, {"headline": "West Nile Virus Hits Yogyakarta", "country": "Indonesia", "city": "Yogyakarta", "id": "1621177", "latitude": -7.80139, "longitude": 110.36472}, {"headline": "More Patients in Dublin are Getting Diagnosed with Bronchitis", "country": "Ireland", "city": "Dublin", "id": "2964574", "latitude": 53.33306, "longitude": -6.24889}, {"headline": "Rumors about Tuberculosis Spreading in Baud have been Refuted", "country": "India", "city": "Baud", "id": "1276686", "latitude": 20.83773, "longitude": 84.32618}, {"headline": "Rumors about West Nile Virus Spreading in Salem have been Refuted", "country": "India", "city": "Salem", "id": "1257629", "latitude": 11.65376, "longitude": 78.15538}, {"headline": "St. Catharines Patient in Critical Condition after Contracting Dengue", "country": "Canada", "city": "St. Catharines", "id": "6155721", "latitude": 43.17126, "longitude": -79.24267}, {"headline": "Zika case reported in Los Fresnos", "country": null, "city": null, "id": "None", "latitude": null, "longitude": null}, {"headline": "More Zika patients reported in Camacari", "country": null, "city": "Camacari", "id": "None", "latitude": null, "longitude": null}, {"headline": "Outbreak of Zika in Pasig City", "country": "Philippines", "city": "Pasig City", "id": "7290466", "latitude": 14.58691, "longitude": 121.0614}, {"headline": "Zika Troubles come to Kampong Cham", "country": "Cambodia", "city": "Kampong Cham", "id": "1831173", "latitude": 11.99339, "longitude": 105.4635}, {"headline": "Zika case reported in Rizal", "country": "Philippines", "city": "Rizal", "id": "1691606", "latitude": 15.7118, "longitude": 121.1061}, {"headline": "Zika Spreads to Palm Beach Gardens", "country": "United States", "city": "Palm Beach Gardens", "id": "4167519", "latitude": 26.82339, "longitude": -80.13865}, {"headline": "More people in Saint Petersburg are infected with Varicella every year", "country": "Russia", "city": "Saint Petersburg", "id": "498817", "latitude": 59.93863, "longitude": 30.31413}, {"headline": "Spike of Herpes Cases in Meriden", "country": "United States", "city": "Meriden", "id": "4838524", "latitude": 41.53815, "longitude": -72.80704}, {"headline": "Zika case reported in Abilene", "country": "United States", "city": "Abilene", "id": "4669635", "latitude": 32.44874, "longitude": -99.73314}, {"headline": "Outbreak of Zika in Palm Springs", "country": "United States", "city": "Palm Springs", "id": "5380668", "latitude": 33.8303, "longitude": -116.54529}, {"headline": "Halifax is infested with Swine Flu", "country": "Canada", "city": "Halifax", "id": "6324729", "latitude": 44.64533, "longitude": -63.57239}, {"headline": "Zika arrives in Natal", "country": "Brazil", "city": "Natal", "id": "3394023", "latitude": -5.795, "longitude": -35.20944}, {"headline": "Herpes Keeps Spreading in Rochester", "country": "United States", "city": "Rochester", "id": "5134086", "latitude": 43.15478, "longitude": -77.61556}, {"headline": "Zika case reported in Phetchabun", "country": "Thailand", "city": "Phetchabun", "id": "1607737", "latitude": 16.41904, "longitude": 101.16056}, {"headline": "How to Avoid Pneumonia in Bullhead City", "country": "United States", "city": "Bullhead City", "id": "5287565", "latitude": 35.14778, "longitude": -114.5683}, {"headline": "West Nile Virus re-emerges in Wellington", "country": "New Zealand", "city": "Wellington", "id": "2179537", "latitude": -41.28664, "longitude": 174.77557}, {"headline": "Rumors about Pneumonia spreading in Ottawa have been refuted", "country": "Canada", "city": "Ottawa", "id": "6094817", "latitude": 45.41117, "longitude": -75.69812}, {"headline": "Meningitis re-emerges in Summerville", "country": "United States", "city": "Summerville", "id": "4597919", "latitude": 33.0185, "longitude": -80.17565}, {"headline": "Pneumonia Symptoms Spread all over Bloomington", "country": "United States", "city": "Bloomington", "id": "5018739", "latitude": 44.8408, "longitude": -93.29828}, {"headline": "More Patients in Stuttgart are Getting Diagnosed with Rabies", "country": "Germany", "city": "Stuttgart", "id": "2825297", "latitude": 48.78232, "longitude": 9.17702}, {"headline": "Schools in Glasgow Closed Due to Hepatitis B Outbreak", "country": "United Kingdom", "city": "Glasgow", "id": "2648579", "latitude": 55.86515, "longitude": -4.25763}, {"headline": "Phoenix Residents Recieve Syphilis vaccine", "country": "United States", "city": "Phoenix", "id": "5308655", "latitude": 33.44838, "longitude": -112.07404}, {"headline": "More people in Boucau are infected with HIV every year", "country": null, "city": null, "id": "None", "latitude": null, "longitude": null}, {"headline": "Spanish flu spreading in Madrid", "country": "Spain", "city": "Madrid", "id": "3117735", "latitude": 40.4165, "longitude": -3.70256}, {"headline": "Rabies Hits Madrid", "country": "Spain", "city": "Madrid", "id": "3117735", "latitude": 40.4165, "longitude": -3.70256}, {"headline": "Zika Outbreak in Weslaco", "country": "United States", "city": "Weslaco", "id": "4740629", "latitude": 26.15952, "longitude": -97.99084}, {"headline": "How to Avoid Chlamydia in Santiago", "country": "Chile", "city": "Santiago", "id": "3871336", "latitude": -33.45694, "longitude": -70.64827}, {"headline": "Rotavirus Vaccine is now Required in Las Cumbres", "country": "Panama", "city": "Las Cumbres", "id": "3706567", "latitude": 9.08916, "longitude": -79.52809}, {"headline": "Mumps Symptoms Spread all over Jefferson", "country": "United States", "city": "Jefferson", "id": "4766586", "latitude": 38.86456, "longitude": -77.18776}, {"headline": "Mad Cow Outbreak Spreading in Ennis", "country": "Ireland", "city": "Ennis", "id": "2964405", "latitude": 52.84361, "longitude": -8.98639}, {"headline": "Southampton Patient in Critical Condition after Contracting Tuberculosis", "country": "United Kingdom", "city": "Southampton", "id": "2637487", "latitude": 50.90395, "longitude": -1.40428}, {"headline": "The Spread of Rhinovirus in Boardman has been Confirmed", "country": "United States", "city": "Boardman", "id": "5147784", "latitude": 41.02423, "longitude": -80.66285}, {"headline": "Richland Center is infested with Hepatitis B", "country": "United States", "city": "Richland", "id": "5808276", "latitude": 46.28569, "longitude": -119.28446}, {"headline": "Authorities are Worried about the Spread of Chickenpox in Richmond", "country": "United States", "city": "Richmond", "id": "4781708", "latitude": 37.55376, "longitude": -77.46026}, {"headline": "Chikungunya re-emerges in Kobe", "country": "Japan", "city": "Kobe", "id": "1859171", "latitude": 34.6913, "longitude": 135.183}, {"headline": "Malaria Vaccine is now Required in Schenectady", "country": "United States", "city": "Schenectady", "id": "5136454", "latitude": 42.81424, "longitude": -73.93957}, {"headline": "Hepatitis D has Arrived in Grenoble", "country": "France", "city": "Grenoble", "id": "3014728", "latitude": 45.17869, "longitude": 5.71479}, {"headline": "West Nile Virus Symptoms Spread all over Yerevan", "country": "Armenia", "city": "Yerevan", "id": "616052", "latitude": 40.18111, "longitude": 44.51361}, {"headline": "Zika Outbreak in Sincelejo", "country": "Colombia", "city": "Sincelejo", "id": "3667983", "latitude": 9.30472, "longitude": -75.39778}, {"headline": "Rumors about HIV spreading in Montpellier have been refuted", "country": "France", "city": "Montpellier", "id": "2992166", "latitude": 43.61092, "longitude": 3.87723}, {"headline": "Praia tests new cure for Pneumonia", "country": "Cabo Verde", "city": "Praia", "id": "3374333", "latitude": 14.93152, "longitude": -23.51254}, {"headline": "Bronchitis Outbreak in Manhasset", "country": null, "city": null, "id": "None", "latitude": null, "longitude": null}, {"headline": "Lower Hospitalization in Lakewood after Hepatitis B Vaccine becomes Mandatory", "country": "United States", "city": "Lakewood", "id": "5427946", "latitude": 39.70471, "longitude": -105.08137}, {"headline": "Zika spreads to Kuching", "country": "Malaysia", "city": "Kuching", "id": "1735634", "latitude": 1.55, "longitude": 110.33333}, {"headline": "Spike of Rotavirus Cases in Omaha", "country": "United States", "city": "Omaha", "id": "5074472", "latitude": 41.25626, "longitude": -95.94043}, {"headline": "Tuberculosis re-emerges in Silver Springs", "country": "South Africa", "city": "Springs", "id": "952865", "latitude": -26.25, "longitude": 28.4}, {"headline": "Will West Nile Virus vaccine help Coronado?", "country": "United States", "city": "Coronado", "id": "5339663", "latitude": 32.68589, "longitude": -117.18309}, {"headline": "Zika case confirmed in Lorain", "country": "United States", "city": "Lorain", "id": "5161262", "latitude": 41.45282, "longitude": -82.18237}, {"headline": "Chickenpox Hits Simpsonville", "country": "United States", "city": "Simpsonville", "id": "4595864", "latitude": 34.73706, "longitude": -82.25428}, {"headline": "Framingham Residents Receive Measles vaccine", "country": "United States", "city": "Framingham", "id": "4937230", "latitude": 42.27926, "longitude": -71.41617}, {"headline": "Rumors about Mad Cow Disease Brighton have been Refuted", "country": "United Kingdom", "city": "Brighton", "id": "2654710", "latitude": 50.82838, "longitude": -0.13947}, {"headline": "Zika case reported in Jacobina", "country": "Brazil", "city": "Jacobina", "id": "3460344", "latitude": -11.18143, "longitude": -40.51372}, {"headline": "Bridgeport authorities confirmed the spread of West Nile Virus", "country": "United States", "city": "Bridgeport", "id": "5282804", "latitude": 41.17923, "longitude": -73.18945}, {"headline": "Zika Troubles come to Padre Las Casas", "country": null, "city": null, "id": "None", "latitude": null, "longitude": null}, {"headline": "Measles Vaccine is now Required in Wailuku", "country": "United States", "city": "Wailuku", "id": "5854496", "latitude": 20.89133, "longitude": -156.50604}, {"headline": "Zika symptoms spotted in Surat", "country": null, "city": "Surat", "id": "None", "latitude": null, "longitude": null}, {"headline": "Rumors about Influenza Spreading in Dobbs Ferry have been Refuted", "country": null, "city": null, "id": "None", "latitude": null, "longitude": null}, {"headline": "More contaminated cattle reported in Bedford", "country": "United Kingdom", "city": "Bedford", "id": "2656046", "latitude": 52.13459, "longitude": -0.46632}, {"headline": "Zika in Tamarac!", "country": "United States", "city": "Tamarac", "id": "4174738", "latitude": 26.21286, "longitude": -80.24977}, {"headline": "Will Measles vaccine help Milford?", "country": "United States", "city": "Milford", "id": "4838652", "latitude": 41.22232, "longitude": -73.0565}, {"headline": "Spike of Norovirus Cases in Huddersfield", "country": "United Kingdom", "city": "Huddersfield", "id": "2646458", "latitude": 53.64904, "longitude": -1.78416}, {"headline": "Rhinovirus Hits Bakersfield", "country": "United States", "city": "Bakersfield", "id": "5325738", "latitude": 35.37329, "longitude": -119.01871}, {"headline": "Lower Hospitalization in Papeete after Measles Vaccine becomes Mandatory", "country": "French Polynesia", "city": "Papeete", "id": "4033936", "latitude": -17.53733, "longitude": -149.5665}, {"headline": "Zika arrives in Udon Thani", "country": "Thailand", "city": "Udon Thani", "id": "1605239", "latitude": 17.41567, "longitude": 102.78589}, {"headline": "Spike of Dengue Cases in Stockholm", "country": "Sweden", "city": "Stockholm", "id": "2673730", "latitude": 59.33258, "longitude": 18.0649}, {"headline": "More people in Berkeley are infected with Swine Flu every year", "country": "United States", "city": "Berkeley", "id": "5327684", "latitude": 37.87159, "longitude": -122.27275}, {"headline": "Outbreak of Zika in Destin", "country": null, "city": null, "id": "None", "latitude": null, "longitude": null}, {"headline": "Zika only the latest mosquito-borne threat to New Orleans", "country": "United States", "city": "New Orleans", "id": "4335045", "latitude": 29.95465, "longitude": -90.07507}, {"headline": "Will Swine Flu vaccine help Annapolis?", "country": "United States", "city": "Annapolis", "id": "4347242", "latitude": 38.97845, "longitude": -76.49218}, {"headline": "Lower Hospitalization in Monroe after Hepatitis D Vaccine becomes Mandatory", "country": "United States", "city": "Monroe", "id": "4333669", "latitude": 32.50931, "longitude": -92.1193}, {"headline": "New medicine wipes out Dengue in Saginaw", "country": "United States", "city": "Saginaw", "id": "5007989", "latitude": 43.41947, "longitude": -83.95081}, {"headline": "Spike of Rhinovirus Cases in Sevierville", "country": "United States", "city": "Sevierville", "id": "4656585", "latitude": 35.86815, "longitude": -83.56184}, {"headline": "Duisburg up in Arms over Mad Cow Disease", "country": "Germany", "city": "Duisburg", "id": "2934691", "latitude": 51.43247, "longitude": 6.76516}, {"headline": "New medicine wipes out Mumps in Saint Charles", "country": "United States", "city": "Saint Charles", "id": "4406831", "latitude": 38.78394, "longitude": -90.48123}, {"headline": "Case of Chikungunya Reported in Gaithersburg", "country": "United States", "city": "Gaithersburg", "id": "4355843", "latitude": 39.14344, "longitude": -77.20137}, {"headline": "How to Avoid Respiratory Syncytial Virus in San Bernardino", "country": "United States", "city": "San Bernardino", "id": "5391710", "latitude": 34.10834, "longitude": -117.28977}, {"headline": "Laventille authorities confirmed the spread of Rhinovirus", "country": "Trinidad and Tobago", "city": "Laventille", "id": "3574309", "latitude": 10.64917, "longitude": -61.49889}, {"headline": "More Zika patients reported in Waco", "country": "United States", "city": "Waco", "id": "4739526", "latitude": 31.54933, "longitude": -97.14667}, {"headline": "Will Herpes vaccine help Newcastle?", "country": "South Africa", "city": "Newcastle", "id": "971421", "latitude": -27.75796, "longitude": 29.9318}, {"headline": "Erie County sets Zika traps", "country": "United States", "city": "Erie", "id": "5188843", "latitude": 42.12922, "longitude": -80.08506}, {"headline": "More people in Huron are infected with Dengue every year", "country": null, "city": null, "id": "None", "latitude": null, "longitude": null}, {"headline": "How to Avoid Norovirus in Greenville", "country": "United States", "city": "Greenville", "id": "4469160", "latitude": 35.61266, "longitude": -77.36635}, {"headline": "More Zika patients reported in Calumpang", "country": "Philippines", "city": "Calumpang", "id": "1720052", "latitude": 14.6228, "longitude": 121.0897}, {"headline": "Zika symptoms spotted in Quisqueya", "country": "Dominican Republic", "city": "Quisqueya", "id": "3494121", "latitude": 18.55542, "longitude": -69.40814}, {"headline": "Rumors about Hepatitis D Spreading in Montreal have been Refuted", "country": null, "city": "Montreal", "id": "None", "latitude": null, "longitude": null}, {"headline": "Zika symptoms spotted in Fortaleza", "country": "Brazil", "city": "Fortaleza", "id": "3399415", "latitude": -3.71722, "longitude": -38.54306}, {"headline": "Rumors about Bronchitis spreading in Bundaberg have been refuted", "country": "Australia", "city": "Bundaberg", "id": "2173323", "latitude": -24.86621, "longitude": 152.3479}, {"headline": "Hepatitis A re-emerges in Stamford", "country": "United States", "city": "Stamford", "id": "4843564", "latitude": 41.05343, "longitude": -73.53873}, {"headline": "Schools in Huntington Closed Due to Rotavirus Outbreak", "country": "United States", "city": "Huntington", "id": "4809537", "latitude": 38.41925, "longitude": -82.44515}, {"headline": "Will Mad Cow Vaccine Help Bristol?", "country": "United Kingdom", "city": "Bristol", "id": "2654675", "latitude": 51.45523, "longitude": -2.59665}, {"headline": "Chickenpox Comes to Stillwater", "country": "United States", "city": "Stillwater", "id": "4552215", "latitude": 36.11561, "longitude": -97.05837}, {"headline": "The Spread of Meningitis in Imperial has been Confirmed", "country": "Peru", "city": "Imperial", "id": "3938396", "latitude": -13.05927, "longitude": -76.35269}, {"headline": "Will Tuberculosis vaccine help Cherry Creek?", "country": null, "city": null, "id": "None", "latitude": null, "longitude": null}, {"headline": "Gympie Patient in Critical Condition after Contracting Chlamydia", "country": null, "city": null, "id": "None", "latitude": null, "longitude": null}, {"headline": "Case of Measles Reported in Springdale", "country": "United States", "city": "Springdale", "id": "4132093", "latitude": 36.18674, "longitude": -94.12881}, {"headline": "Norwalk Encounters Severe Symptoms of Malaria", "country": "United States", "city": "Norwalk", "id": "5377995", "latitude": 33.90224, "longitude": -118.08173}, {"headline": "Zika arrives in Orange City", "country": "United States", "city": "Orange", "id": "5379513", "latitude": 33.78779, "longitude": -117.85311}, {"headline": "Pilsen Encounters Severe Symptoms of Malaria", "country": "Czechia", "city": "Pilsen", "id": "3068160", "latitude": 49.74747, "longitude": 13.37759}, {"headline": "Will Hepatitis B vaccine help La Paz?", "country": "Bolivia", "city": "La Paz", "id": "3911925", "latitude": -16.5, "longitude": -68.15}, {"headline": "Zika Outbreak in Puducherry", "country": "India", "city": "Puducherry", "id": "1259425", "latitude": 11.93381, "longitude": 79.82979}, {"headline": "More Zika patients reported in Carrollton", "country": "United States", "city": "Carrollton", "id": "4679195", "latitude": 32.95373, "longitude": -96.89028}, {"headline": "Will Rabies vaccine help Tangier?", "country": "Morocco", "city": "Tangier", "id": "2530335", "latitude": 35.76727, "longitude": -5.79975}, {"headline": "Zika symptoms spotted in Iquitos", "country": "Peru", "city": "Iquitos", "id": "3696183", "latitude": -3.74912, "longitude": -73.25383}, {"headline": "West Nile Virus Exposure in Racine", "country": "United States", "city": "Racine", "id": "5268249", "latitude": 42.72613, "longitude": -87.78285}, {"headline": "The Spread of Hepatitis E in Lansing has been Confirmed", "country": "United States", "city": "Lansing", "id": "4998830", "latitude": 42.73253, "longitude": -84.55553}, {"headline": "West Nile Virus Exposure in Alpharetta", "country": "United States", "city": "Alpharetta", "id": "4179574", "latitude": 34.07538, "longitude": -84.29409}, {"headline": "Pedro Juan Caballero Encounters Severe Symptoms of Pneumonia", "country": "Paraguay", "city": "Pedro Juan Caballero", "id": "3437547", "latitude": -22.54722, "longitude": -55.73333}, {"headline": "More Zika patients reported in Melbourne", "country": "Australia", "city": "Melbourne", "id": "2158177", "latitude": -37.814, "longitude": 144.96332}, {"headline": "Zika Troubles come to La Libertad", "country": "Ecuador", "city": "La Libertad", "id": "3655131", "latitude": -2.233, "longitude": -80.91039}, {"headline": "Herpes Vaccine is now Required in Mattoon", "country": "United States", "city": "Mattoon", "id": "4244099", "latitude": 39.48309, "longitude": -88.37283}, {"headline": "Kent is infested with Rabies", "country": "United States", "city": "Kent", "id": "5799625", "latitude": 47.38093, "longitude": -122.23484}, {"headline": "Zika symptoms spotted in Bonita Springs", "country": "United States", "city": "Bonita Springs", "id": "4148533", "latitude": 26.33981, "longitude": -81.7787}, {"headline": "The Spread of Malaria in Brazzaville has been Confirmed", "country": "Republic of the Congo", "city": "Brazzaville", "id": "2260535", "latitude": -4.26613, "longitude": 15.28318}, {"headline": "More Zika patients reported in Fort Myers", "country": "United States", "city": "Fort Myers", "id": "4155995", "latitude": 26.62168, "longitude": -81.84059}, {"headline": "Zika spreads to Lewisville", "country": "United States", "city": "Lewisville", "id": "4706057", "latitude": 33.04623, "longitude": -96.99417}, {"headline": "Ogden is infested with Gonorrhea", "country": "United States", "city": "Ogden", "id": "5779206", "latitude": 41.223, "longitude": -111.97383}, {"headline": "Fort Hood Reports its First Zika Patient", "country": "United States", "city": "Fort Hood", "id": "7261291", "latitude": 31.13489, "longitude": -97.77561}, {"headline": "Huzhou Residents Receive Hepatitis B vaccine", "country": "China", "city": "Huzhou", "id": "1806535", "latitude": 30.8703, "longitude": 120.0933}, {"headline": "New medicine wipes out Rabies in Newburgh", "country": "United States", "city": "Newburgh", "id": "5128654", "latitude": 41.50343, "longitude": -74.01042}, {"headline": "Iowa City Encounters Severe Symptoms of Rhinovirus", "country": "United States", "city": "Iowa City", "id": "4862034", "latitude": 41.66113, "longitude": -91.53017}, {"headline": "Spike of Rabies Cases in Managua", "country": "Nicaragua", "city": "Managua", "id": "3617763", "latitude": 12.13282, "longitude": -86.2504}, {"headline": "Outbreak of Zika in Santa Elena", "country": "Ecuador", "city": "Santa Elena", "id": "3651438", "latitude": -2.22622, "longitude": -80.85873}, {"headline": "Mumps Hits Howard Beach", "country": "United States", "city": "Howard Beach", "id": "5121407", "latitude": 40.65788, "longitude": -73.83625}, {"headline": "The Spread of Gonorrhea in Reno has been Confirmed", "country": "United States", "city": "Reno", "id": "5511077", "latitude": 39.52963, "longitude": -119.8138}, {"headline": "How to Avoid Rhinovirus in Plainfield", "country": "United States", "city": "Plainfield", "id": "5102720", "latitude": 40.63371, "longitude": -74.40737}, {"headline": "Rumors about Varicella spreading in Carlsbad have been refuted", "country": "United States", "city": "Carlsbad", "id": "5334223", "latitude": 33.15809, "longitude": -117.35059}, {"headline": "Scranton authorities confirmed the spread of Gonorrhea", "country": "United States", "city": "Scranton", "id": "5211303", "latitude": 41.40916, "longitude": -75.6649}, {"headline": "Mad Cow Disease Disastrous to Brussels", "country": "Belgium", "city": "Brussels", "id": "2800866", "latitude": 50.85045, "longitude": 4.34878}, {"headline": "Zika spreads to Olinda", "country": "Brazil", "city": "Olinda", "id": "3393536", "latitude": -8.00889, "longitude": -34.85528}, {"headline": "Hallandale Beach a Victim of Zika Outbreak", "country": "United States", "city": "Hallandale Beach", "id": "4157898", "latitude": 25.9812, "longitude": -80.14838}, {"headline": "Rhinovirus re-emerges in Storrs", "country": "United States", "city": "Storrs", "id": "4843786", "latitude": 41.80843, "longitude": -72.24952}, {"headline": "Germantown authorities confirmed the spread of Chickenpox", "country": "United States", "city": "Germantown", "id": "4356050", "latitude": 39.17316, "longitude": -77.27165}, {"headline": "Rumors about Rotavirus spreading in North Platte have been refuted", "country": "United States", "city": "North Platte", "id": "5697939", "latitude": 41.12389, "longitude": -100.76542}, {"headline": "Spike of Hepatitis C Cases in Golden", "country": "United States", "city": "Golden", "id": "5423294", "latitude": 39.75554, "longitude": -105.2211}, {"headline": "Authorities are Worried about the Spread of Hepatitis D in Ganja", "country": "Azerbaijan", "city": "Ganja", "id": "586523", "latitude": 40.68278, "longitude": 46.36056}, {"headline": "Dengue Exposure in Kathmandu", "country": "Nepal", "city": "Kathmandu", "id": "1283240", "latitude": 27.70169, "longitude": 85.3206}, {"headline": "Tuberculosis has Arrived in Fairfield", "country": "United States", "city": "Fairfield", "id": "5347335", "latitude": 38.24936, "longitude": -122.03997}, {"headline": "Outbreak of Zika in Kozhikode", "country": "India", "city": "Kozhikode", "id": "1265873", "latitude": 11.24802, "longitude": 75.7804}, {"headline": "Bronchitis Symptoms Spread all over Santa Fe", "country": "Argentina", "city": "Santa Fe", "id": "3836277", "latitude": -31.64881, "longitude": -60.70868}, {"headline": "More Patients in Alexandria are Getting Diagnosed with Mumps", "country": "Egypt", "city": "Alexandria", "id": "361058", "latitude": 31.20176, "longitude": 29.91582}, {"headline": "Pneumonia Exposure in Alhambra", "country": "United States", "city": "Alhambra", "id": "5551123", "latitude": 33.49838, "longitude": -112.13432}, {"headline": "Hepatitis C re-emerges in Damascus", "country": "Syria", "city": "Damascus", "id": "170654", "latitude": 33.5102, "longitude": 36.29128}, {"headline": "Lower Hospitalization in Pekanbaru after Rotavirus Vaccine becomes Mandatory", "country": "Indonesia", "city": "Pekanbaru", "id": "1631761", "latitude": 0.51667, "longitude": 101.44167}, {"headline": "Spike of Meningitis Cases in Druid Hills", "country": null, "city": null, "id": "None", "latitude": null, "longitude": null}, {"headline": "Schools in Bentonville Closed Due to Hepatitis B Outbreak", "country": "United States", "city": "Bentonville", "id": "4101260", "latitude": 36.37285, "longitude": -94.20882}, {"headline": "Hepatitis E Hits Hammond", "country": "United States", "city": "Hammond", "id": "4921100", "latitude": 41.58337, "longitude": -87.50004}, {"headline": "Schools in Bridgeton Closed Due to Mumps Outbreak", "country": "United States", "city": "Bridgeton", "id": "4500942", "latitude": 39.42734, "longitude": -75.23408}, {"headline": "Biloxi Residents Recieve Chlamydia vaccine", "country": "United States", "city": "Biloxi", "id": "4418478", "latitude": 30.39603, "longitude": -88.88531}, {"headline": "Case of Mad Cow Disease Reported in Hilden", "country": "Germany", "city": "Hilden", "id": "2904795", "latitude": 51.16818, "longitude": 6.93093}, {"headline": "Rumors about Rabies Spreading in Khartoum have been Refuted", "country": "Sudan", "city": "Khartoum", "id": "379252", "latitude": 15.55177, "longitude": 32.53241}, {"headline": "Harare is infested with Pneumonia", "country": "Zimbabwe", "city": "Harare", "id": "890299", "latitude": -17.82772, "longitude": 31.05337}, {"headline": "Zika symptoms spotted in Sibu", "country": "Malaysia", "city": "Sibu", "id": "1735902", "latitude": 2.3, "longitude": 111.81667}, {"headline": "Zika arrives in Quezon", "country": "Philippines", "city": "Quezon", "id": "1692214", "latitude": 7.73028, "longitude": 125.09889}, {"headline": "More Patients in Crawfordsville are Getting Diagnosed with Rabies", "country": "United States", "city": "Crawfordsville", "id": "4919381", "latitude": 40.04115, "longitude": -86.87445}, {"headline": "Spike of Hepatitis B Cases in Greenville", "country": "United States", "city": "Greenville", "id": "4469160", "latitude": 35.61266, "longitude": -77.36635}, {"headline": "Authorities are Worried about the Spread of Hepatitis D in Akron", "country": "United States", "city": "Akron", "id": "5145476", "latitude": 41.08144, "longitude": -81.51901}, {"headline": "More Zika patients reported in Nuevo Laredo", "country": "Mexico", "city": "Nuevo Laredo", "id": "3522551", "latitude": 27.47629, "longitude": -99.51639}, {"headline": "Bronchitis Keeps Spreading in San Mateo", "country": "Philippines", "city": "San Mateo", "id": "1689056", "latitude": 14.6982, "longitude": 121.1236}, {"headline": "Zika arrives in Boca Raton", "country": "United States", "city": "Boca Raton", "id": "4148411", "latitude": 26.35869, "longitude": -80.0831}, {"headline": "Bradenton Experiences Zika Troubles  ", "country": "United States", "city": "Bradenton", "id": "4148708", "latitude": 27.49893, "longitude": -82.57482}, {"headline": "Chlamydia Symptoms Spread all over University City", "country": "United States", "city": "University City", "id": "4412697", "latitude": 38.65588, "longitude": -90.30928}, {"headline": "Wisconsin Rapids Patient in Critical Condition after Contracting Chickenpox", "country": "United States", "city": "Wisconsin Rapids", "id": "5279436", "latitude": 44.38358, "longitude": -89.81735}, {"headline": "Zika spreads to Kissimmee", "country": "United States", "city": "Kissimmee", "id": "4160983", "latitude": 28.30468, "longitude": -81.41667}, {"headline": "Herpes Symptoms Spread all over Fremont", "country": "United States", "city": "Fremont", "id": "5350734", "latitude": 37.54827, "longitude": -121.98857}, {"headline": "Spike of Pneumonia Cases in The Bronx", "country": "United States", "city": "The Bronx", "id": "5110266", "latitude": 40.84985, "longitude": -73.86641}, {"headline": "Authorities are Worried about the Spread of Hepatitis D in North Bay", "country": "Canada", "city": "North Bay", "id": "6089426", "latitude": 46.3168, "longitude": -79.46633}, {"headline": "The Spread of Herpes in Baku has been Confirmed", "country": "Azerbaijan", "city": "Baku", "id": "587084", "latitude": 40.37767, "longitude": 49.89201}, {"headline": "Will Measles vaccine help Sochi?", "country": "Russia", "city": "Sochi", "id": "491422", "latitude": 43.59917, "longitude": 39.72569}, {"headline": "Tuberculosis Symptoms Spread all over Caguas", "country": "Puerto Rico", "city": "Caguas", "id": "4563008", "latitude": 18.23412, "longitude": -66.0485}, {"headline": "HIV has Arrived in Tacoma", "country": "United States", "city": "Tacoma", "id": "5812944", "latitude": 47.25288, "longitude": -122.44429}, {"headline": "Malaria re-emerges in Nashua", "country": "United States", "city": "Nashua", "id": "5090046", "latitude": 42.76537, "longitude": -71.46757}, {"headline": "Arvada is infested with Syphilis", "country": "United States", "city": "Arvada", "id": "5412199", "latitude": 39.80276, "longitude": -105.08748}, {"headline": "Spike of Syphilis Cases in West Monroe", "country": "United States", "city": "Monroe", "id": "4333669", "latitude": 32.50931, "longitude": -92.1193}, {"headline": "More Zika patients reported in Ribeirao Preto", "country": null, "city": "Ribeirao Preto", "id": "None", "latitude": null, "longitude": null}, {"headline": "Martinsville tests new cure for Measles", "country": null, "city": null, "id": "None", "latitude": null, "longitude": null}, {"headline": "Deerfield tests new cure for Measles", "country": "United States", "city": "Deerfield", "id": "4889668", "latitude": 42.17114, "longitude": -87.84451}, {"headline": "Contaminated Meat Brings Trouble for Bonn Farmers", "country": "Germany", "city": "Bonn", "id": "2946447", "latitude": 50.73438, "longitude": 7.09549}, {"headline": "More Patients in Magnolia are Getting Diagnosed with Malaria", "country": null, "city": null, "id": "None", "latitude": null, "longitude": null}, {"headline": "Hepatitis A re-emerges in Foster City", "country": "United States", "city": "Foster City", "id": "5350159", "latitude": 37.55855, "longitude": -122.27108}, {"headline": "How to Avoid Tuberculosis in Santa Monica", "country": "United States", "city": "Santa Monica", "id": "5393212", "latitude": 34.01945, "longitude": -118.49119}, {"headline": "Zika reported in Fort Pierce", "country": "United States", "city": "Fort Pierce", "id": "4156018", "latitude": 27.44671, "longitude": -80.32561}, {"headline": "Authorities are Worried about the Spread of Syphilis in Pyongyang", "country": "North Korea", "city": "Pyongyang", "id": "1871859", "latitude": 39.03385, "longitude": 125.75432}, {"headline": "Zika spreads to Winter Park", "country": "United States", "city": "Winter Park", "id": "4178560", "latitude": 28.6, "longitude": -81.33924}, {"headline": "Durango is infested with Hepatitis B", "country": "Spain", "city": "Durango", "id": "3123773", "latitude": 43.17124, "longitude": -2.6338}, {"headline": "Hepatitis A has not Left Staten Island", "country": "United States", "city": "Staten Island", "id": "5139568", "latitude": 40.56233, "longitude": -74.13986}, {"headline": "Mpika authorities confirmed the spread of Chikungunya", "country": "Zambia", "city": "Mpika", "id": "905846", "latitude": -11.83431, "longitude": 31.45287}, {"headline": "Gladstone Encounters Severe Symptoms of Dengue", "country": "Australia", "city": "Gladstone", "id": "2165478", "latitude": -23.84852, "longitude": 151.25775}, {"headline": "Mad Cow Disease Hits London", "country": "United Kingdom", "city": "London", "id": "2643743", "latitude": 51.50853, "longitude": -0.12574}, {"headline": "New Milford Patient in Critical Condition after Contracting Respiratory Syncytial Virus", "country": "United States", "city": "New Milford", "id": "5101766", "latitude": 40.9351, "longitude": -74.01903}, {"headline": "More people in Palo Alto are infected with HIV every year", "country": "United States", "city": "Palo Alto", "id": "5380748", "latitude": 37.44188, "longitude": -122.14302}, {"headline": "HIV Symptoms Spread all over Hinthada", "country": "Myanmar", "city": "Hinthada", "id": "1325211", "latitude": 17.64944, "longitude": 95.45705}, {"headline": "Zika symptoms spotted in Quito", "country": "Ecuador", "city": "Quito", "id": "3652462", "latitude": -0.22985, "longitude": -78.52495}, {"headline": "Vineland authorities confirmed the spread of Chlamydia", "country": "United States", "city": "Vineland", "id": "4504621", "latitude": 39.48623, "longitude": -75.02573}, {"headline": "Sulu, Zamboanga brace for Zika", "country": "Philippines", "city": "Zamboanga", "id": "1679432", "latitude": 6.91028, "longitude": 122.07389}, {"headline": "More Zika patients reported in Custodia", "country": null, "city": "Custodia", "id": "None", "latitude": null, "longitude": null}, {"headline": "Tupelo Residents Recieve Syphilis vaccine", "country": "United States", "city": "Tupelo", "id": "4448903", "latitude": 34.25807, "longitude": -88.70464}, {"headline": "Rumors about Syphilis spreading in Penal have been refuted", "country": null, "city": null, "id": "None", "latitude": null, "longitude": null}, {"headline": "Spanish Flu Outbreak in Lisbon", "country": "Portugal", "city": "Lisbon", "id": "2267057", "latitude": 38.71667, "longitude": -9.13333}, {"headline": "Spanish Flu Spreading through Madrid", "country": "Spain", "city": "Madrid", "id": "3117735", "latitude": 40.4165, "longitude": -3.70256}, {"headline": "Barcelona Struck by Spanish Flu", "country": "Spain", "city": "Barcelona", "id": "3128760", "latitude": 41.38879, "longitude": 2.15899}, {"headline": "Spanish Flu Outbreak in Lisbon", "country": "Portugal", "city": "Lisbon", "id": "2267057", "latitude": 38.71667, "longitude": -9.13333}, {"headline": "Spanish Flu Spreading through Madrid", "country": "Spain", "city": "Madrid", "id": "3117735", "latitude": 40.4165, "longitude": -3.70256}, {"headline": "Barcelona Struck by Spanish Flu ", "country": "Spain", "city": "Barcelona", "id": "3128760", "latitude": 41.38879, "longitude": 2.15899}, {"headline": "The Spread of Dengue in Yakima has been Confirmed", "country": "United States", "city": "Yakima", "id": "5816605", "latitude": 46.60207, "longitude": -120.5059}, {"headline": "Tuberculosis Hits Luanda", "country": "Angola", "city": "Luanda", "id": "2240449", "latitude": -8.83682, "longitude": 13.23432}, {"headline": "Will West Nile Virus vaccine help Dumai?", "country": "Indonesia", "city": "Dumai", "id": "1645133", "latitude": 1.66711, "longitude": 101.44316}, {"headline": "Rumors about Chlamydia spreading in Redmond have been refuted", "country": "United States", "city": "Redmond", "id": "5808079", "latitude": 47.67399, "longitude": -122.12151}, {"headline": "Case of Varicella Reported in Concord", "country": "United States", "city": "Concord", "id": "5339111", "latitude": 37.97798, "longitude": -122.03107}, {"headline": "Zika virus case reported in Rockland", "country": "United States", "city": "Rockland", "id": "4948924", "latitude": 42.13066, "longitude": -70.91616}, {"headline": "Zika investigators coming to Mankato", "country": "United States", "city": "Mankato", "id": "5036420", "latitude": 44.15906, "longitude": -94.00915}, {"headline": "Toms River Encounters Severe Symptoms of Respiratory Syncytial Virus", "country": "United States", "city": "Toms River", "id": "4504476", "latitude": 39.95373, "longitude": -74.19792}, {"headline": "The Spread of Malaria in Zanzibar has been Confirmed", "country": "Tanzania", "city": "Zanzibar", "id": "148730", "latitude": -6.16394, "longitude": 39.19793}, {"headline": "Malaria Outbreak Hits Zanzibar's Tourist Industry", "country": "Tanzania", "city": "Zanzibar", "id": "148730", "latitude": -6.16394, "longitude": 39.19793}, {"headline": "Tourist Perishes from Malaria in Arusha", "country": "Tanzania", "city": "Arusha", "id": "161325", "latitude": -3.36667, "longitude": 36.68333}, {"headline": "Herpes Symptoms Spread all over New Kingston", "country": "Jamaica", "city": "New Kingston", "id": "3489297", "latitude": 18.00747, "longitude": -76.78319}, {"headline": "More people in Yokohama are infected with Norovirus every year", "country": "Japan", "city": "Yokohama", "id": "1848354", "latitude": 35.43333, "longitude": 139.65}, {"headline": "More people in Kitwe are infected with Respiratory Syncytial Virus every year", "country": "Zambia", "city": "Kitwe", "id": "911148", "latitude": -12.80243, "longitude": 28.21323}, {"headline": "Hepatitis D Keeps Spreading in Bismarck", "country": "United States", "city": "Bismarck", "id": "5688025", "latitude": 46.80833, "longitude": -100.78374}, {"headline": "Varicella Outbreak in Minot", "country": "United States", "city": "Minot", "id": "5690532", "latitude": 48.23251, "longitude": -101.29627}, {"headline": "Malaria has Arrived in Terrebonne", "country": "Canada", "city": "Terrebonne", "id": "6163012", "latitude": 45.70004, "longitude": -73.64732}, {"headline": "Chikungunya Keeps Spreading in North Vancouver", "country": "Canada", "city": "North Vancouver", "id": "6090785", "latitude": 49.31636, "longitude": -123.06934}, {"headline": "Authorities are Worried about the Spread of Chickenpox in Hemet", "country": "United States", "city": "Hemet", "id": "5356277", "latitude": 33.74761, "longitude": -116.97307}, {"headline": "Fort Belvoir tests new cure for Hepatitis C", "country": null, "city": null, "id": "None", "latitude": null, "longitude": null}, {"headline": "More people in Oak Brook are infected with Respiratory Syncytial Virus every year", "country": null, "city": null, "id": "None", "latitude": null, "longitude": null}, {"headline": "Rumors about Hepatitis C spreading in Darien have been refuted", "country": "United States", "city": "Darien", "id": "4889447", "latitude": 41.75198, "longitude": -87.97395}, {"headline": "The Spread of West Nile Virus in Fairfield has been Confirmed", "country": "United States", "city": "Fairfield", "id": "5347335", "latitude": 38.24936, "longitude": -122.03997}, {"headline": "Princeton Encounters Severe Symptoms of Dengue", "country": "United States", "city": "Princeton", "id": "5102922", "latitude": 40.34872, "longitude": -74.65905}, {"headline": "Norovirus Keeps Spreading in Copenhagen", "country": "Denmark", "city": "Copenhagen", "id": "2618425", "latitude": 55.67594, "longitude": 12.56553}, {"headline": "Wuhan is infested with Varicella", "country": "China", "city": "Wuhan", "id": "1791247", "latitude": 30.58333, "longitude": 114.26667}, {"headline": "Zika spreads to San Luis Potosi", "country": null, "city": "San Luis Potosi", "id": "None", "latitude": null, "longitude": null}, {"headline": "Outbreak of Zika in Hutchins", "country": null, "city": null, "id": "None", "latitude": null, "longitude": null}, {"headline": "Spike of Norovirus Cases in Canberra", "country": "Australia", "city": "Canberra", "id": "2172517", "latitude": -35.28346, "longitude": 149.12807}, {"headline": "Zika Troubles come to Greater Noida", "country": "India", "city": "Greater Noida", "id": "6954929", "latitude": 28.49615, "longitude": 77.53601}, {"headline": "Lower Hospitalization in Palm Springs after Hepatitis A Vaccine becomes Mandatory", "country": "United States", "city": "Palm Springs", "id": "5380668", "latitude": 33.8303, "longitude": -116.54529}, {"headline": "Longwood volunteers spreading Zika awareness", "country": null, "city": null, "id": "None", "latitude": null, "longitude": null}, {"headline": "Outbreak of Zika in Leesburg", "country": "United States", "city": "Leesburg", "id": "4769125", "latitude": 39.11566, "longitude": -77.5636}, {"headline": "Authorities are Worried about the Spread of Tuberculosis in Cantu", "country": null, "city": "Cantu", "id": "None", "latitude": null, "longitude": null}, {"headline": "Zika symptoms spotted in Quixere", "country": null, "city": null, "id": "None", "latitude": null, "longitude": null}, {"headline": "New medicine wipes out HIV in Kihei", "country": null, "city": "Kihei", "id": "None", "latitude": null, "longitude": null}, {"headline": "Sangre Grande Residents Recieve Gonorrhea vaccine", "country": "Trinidad and Tobago", "city": "Sangre Grande", "id": "3573732", "latitude": 10.58705, "longitude": -61.13008}, {"headline": "Outbreak of Zika in Colombo", "country": "Sri Lanka", "city": "Colombo", "id": "1248991", "latitude": 6.93548, "longitude": 79.84868}, {"headline": "Will Rotavirus vaccine help Addis Ababa?", "country": "Ethiopia", "city": "Addis Ababa", "id": "344979", "latitude": 9.02497, "longitude": 38.74689}, {"headline": "Stony Brook University experts discuss Zika virus", "country": "United States", "city": "University", "id": "7260219", "latitude": 28.07389, "longitude": -82.43902}, {"headline": "Lower Hospitalization in Janesville after Varicella Vaccine becomes Mandatory", "country": "United States", "city": "Janesville", "id": "5257754", "latitude": 42.68279, "longitude": -89.01872}, {"headline": "Rabies Outbreak in Altus", "country": "United States", "city": "Altus", "id": "4529292", "latitude": 34.63813, "longitude": -99.33398}, {"headline": "Miami resident suggests Zika precautions", "country": "United States", "city": "Miami", "id": "4164138", "latitude": 25.77427, "longitude": -80.19366}, {"headline": "Zika Troubles come to Jaen", "country": "Philippines", "city": "Jaen", "id": "1710389", "latitude": 15.3275, "longitude": 120.9192}, {"headline": "Hepatitis B Exposure in Edinburgh", "country": "United Kingdom", "city": "Edinburgh", "id": "2650225", "latitude": 55.95206, "longitude": -3.19648}, {"headline": "Zika case reported in Reynosa", "country": "Mexico", "city": "Reynosa", "id": "3520339", "latitude": 26.08061, "longitude": -98.28835}, {"headline": "Schools in Tulare Closed Due to Mumps Outbreak", "country": "United States", "city": "Tulare", "id": "5403783", "latitude": 36.20773, "longitude": -119.34734}, {"headline": "More Zika patients reported in Chennai", "country": "India", "city": "Chennai", "id": "1264527", "latitude": 13.08784, "longitude": 80.27847}, {"headline": "Hepatitis D Keeps Spreading in Danvers", "country": "United States", "city": "Danvers", "id": "4934500", "latitude": 42.57509, "longitude": -70.93005}, {"headline": "Authorities a Miami", "country": "United States", "city": "Miami", "id": "4164138", "latitude": 25.77427, "longitude": -80.19366}, {"headline": "Zika case reported in Medellin", "country": null, "city": "Medellin", "id": "None", "latitude": null, "longitude": null}, {"headline": "Spike of Tuberculosis Cases in Albuquerque", "country": "United States", "city": "Albuquerque", "id": "5454711", "latitude": 35.08449, "longitude": -106.65114}, {"headline": "More people in Cranford are infected with Hepatitis A every year", "country": "United States", "city": "Cranford", "id": "5097017", "latitude": 40.65844, "longitude": -74.29959}, {"headline": "West Nile Virus Hits Monroe", "country": "United States", "city": "Monroe", "id": "4333669", "latitude": 32.50931, "longitude": -92.1193}, {"headline": "Pneumonia Outbreak in Springville", "country": "United States", "city": "Springville", "id": "5781993", "latitude": 40.16523, "longitude": -111.61075}, {"headline": "Zika arrives in San Onofre", "country": "Colombia", "city": "San Onofre", "id": "3669218", "latitude": 9.73586, "longitude": -75.52626}, {"headline": "Lung Cancer Rates Increasing in Moscow", "country": "Russia", "city": "Moscow", "id": "524901", "latitude": 55.75222, "longitude": 37.61556}, {"headline": "Rumors about Rotavirus Spreading in Joliet have been Refuted", "country": "United States", "city": "Joliet", "id": "4898015", "latitude": 41.52519, "longitude": -88.0834}, {"headline": "More Zika patients reported in Chanthaburi", "country": "Thailand", "city": "Chanthaburi", "id": "1611269", "latitude": 12.60961, "longitude": 102.10447}, {"headline": "Lawrenceville is infested with Dengue", "country": "United States", "city": "Lawrenceville", "id": "4205196", "latitude": 33.95621, "longitude": -83.98796}, {"headline": "Zika Reported in Ciudad Acuna", "country": null, "city": "Ciudad Acuna", "id": "None", "latitude": null, "longitude": null}, {"headline": "Zika case reported in Limoeiro", "country": "Brazil", "city": "Limoeiro", "id": "3396277", "latitude": -7.87472, "longitude": -35.45028}, {"headline": "Ibadan tests new cure for Malaria", "country": "Nigeria", "city": "Ibadan", "id": "2339354", "latitude": 7.37756, "longitude": 3.90591}, {"headline": "Gonorrhea has Arrived in Avon Lake", "country": "United States", "city": "Avon Lake", "id": "5146286", "latitude": 41.50532, "longitude": -82.0282}, {"headline": "Pneumonia has not Left Kinshasa", "country": "Democratic Republic of the Congo", "city": "Kinshasa", "id": "2314302", "latitude": -4.32758, "longitude": 15.31357}, {"headline": "Respiratory Syncytial Virus Hits Henderson", "country": "United States", "city": "Henderson", "id": "5505411", "latitude": 36.0397, "longitude": -114.98194}, {"headline": "More Zika patients reported in Lakeland", "country": "United States", "city": "Lakeland", "id": "4161438", "latitude": 28.03947, "longitude": -81.9498}, {"headline": "Malaria Vaccine is now Required in Winona", "country": "United States", "city": "Winona", "id": "5053156", "latitude": 44.04996, "longitude": -91.63932}, {"headline": "More Patients in Canton are Getting Diagnosed with Norovirus", "country": "United States", "city": "Canton", "id": "4987990", "latitude": 42.30865, "longitude": -83.48216}, {"headline": "Ronkonkoma is infested with Chickenpox", "country": "United States", "city": "Ronkonkoma", "id": "5134316", "latitude": 40.81538, "longitude": -73.11233}, {"headline": "Kedougou tests new cure for Hepatitis C", "country": null, "city": "Kedougou", "id": "None", "latitude": null, "longitude": null}, {"headline": "Gonorrhea Exposure in Norwalk", "country": "United States", "city": "Norwalk", "id": "5377995", "latitude": 33.90224, "longitude": -118.08173}, {"headline": "How to Avoid Rhinovirus in Medford", "country": "United States", "city": "Medford", "id": "5740099", "latitude": 42.32652, "longitude": -122.87559}, {"headline": "Hepatitis D Symptoms Spread all over Evansville", "country": "United States", "city": "Evansville", "id": "4257227", "latitude": 37.97476, "longitude": -87.55585}, {"headline": "New medicine wipes out Herpes in Bossier City", "country": "United States", "city": "Bossier City", "id": "4317639", "latitude": 32.51599, "longitude": -93.73212}, {"headline": "Pneumonia Exposure in San Jose", "country": "United States", "city": "San Jose", "id": "5392171", "latitude": 37.33939, "longitude": -121.89496}, {"headline": "Authorities are Worried about the Spread of Mad Cow Disease in Edinburgh", "country": "United Kingdom", "city": "Edinburgh", "id": "2650225", "latitude": 55.95206, "longitude": -3.19648}, {"headline": "Duluth Patient in Critical Condition after Contracting Rotavirus", "country": "United States", "city": "Duluth", "id": "5024719", "latitude": 46.78327, "longitude": -92.10658}, {"headline": "Measles Hits Davos", "country": null, "city": null, "id": "None", "latitude": null, "longitude": null}, {"headline": "Norfolk tests new cure for Herpes", "country": "United States", "city": "Norfolk", "id": "4776222", "latitude": 36.84681, "longitude": -76.28522}, {"headline": "More Zika patients reported in Botucatu", "country": "Brazil", "city": "Botucatu", "id": "3469136", "latitude": -22.88583, "longitude": -48.445}, {"headline": "Manassas Encounters Severe Symptoms of Measles", "country": "United States", "city": "Manassas", "id": "4771401", "latitude": 38.75095, "longitude": -77.47527}, {"headline": "Fayetteville authorities confirmed the spread of HIV", "country": "United States", "city": "Fayetteville", "id": "4466033", "latitude": 35.05266, "longitude": -78.87836}, {"headline": "Varicella Exposure in Cambridge", "country": "United Kingdom", "city": "Cambridge", "id": "2653941", "latitude": 52.2, "longitude": 0.11667}, {"headline": "Hepatitis A Vaccine is now Required in Fukushima", "country": "Japan", "city": "Fukushima", "id": "2112923", "latitude": 37.75, "longitude": 140.46667}, {"headline": "Zika Outbreak in South Miami", "country": "United States", "city": "Miami", "id": "4164138", "latitude": 25.77427, "longitude": -80.19366}, {"headline": "Hepatitis D Symptoms Spread all over North Bethesda", "country": "United States", "city": "North Bethesda", "id": "4363843", "latitude": 39.04455, "longitude": -77.11887}, {"headline": "Panama City\u2019s first Zika related death", "country": "United States", "city": "Panama City", "id": "4167694", "latitude": 30.15946, "longitude": -85.65983}, {"headline": "West Nile Virus has Arrived in Dongguan", "country": "China", "city": "Dongguan", "id": "1812545", "latitude": 23.01797, "longitude": 113.74866}, {"headline": "Zika arrives in Belmopan", "country": "Belize", "city": "Belmopan", "id": "3582672", "latitude": 17.25, "longitude": -88.76667}, {"headline": "Zika seminars in Yuma County", "country": "United States", "city": "Yuma", "id": "5322053", "latitude": 32.72532, "longitude": -114.6244}, {"headline": "Rumors about Hepatitis E Spreading in Morristown have been Refuted", "country": "United States", "city": "Morristown", "id": "4642938", "latitude": 36.21398, "longitude": -83.29489}, {"headline": "Mumps Outbreak in Joplin", "country": "United States", "city": "Joplin", "id": "4392768", "latitude": 37.08423, "longitude": -94.51328}, {"headline": "Spike of Hepatitis E Cases in Morehead City", "country": null, "city": null, "id": "None", "latitude": null, "longitude": null}, {"headline": "Authorities are Worried about the Spread of Mumps in Corona", "country": "United States", "city": "Corona", "id": "5339631", "latitude": 33.87529, "longitude": -117.56644}, {"headline": "Schools in Danville Closed Due to Tuberculosis Outbreak", "country": "United States", "city": "Danville", "id": "5341531", "latitude": 37.82159, "longitude": -121.99996}, {"headline": "Outbreak of Zika in Alvorada", "country": null, "city": null, "id": "None", "latitude": null, "longitude": null}, {"headline": "Marquette tests new cure for Hepatitis A", "country": "United States", "city": "Marquette", "id": "5000947", "latitude": 46.54354, "longitude": -87.39542}, {"headline": "Norovirus Vaccine is now Required in Anaheim", "country": "United States", "city": "Anaheim", "id": "5323810", "latitude": 33.83529, "longitude": -117.9145}, {"headline": "Zika Outbreak in Manaus", "country": "Brazil", "city": "Manaus", "id": "3663517", "latitude": -3.10194, "longitude": -60.025}, {"headline": "Zika spreads to Caucasia", "country": "Colombia", "city": "Caucasia", "id": "3687025", "latitude": 7.98654, "longitude": -75.19349}, {"headline": "Case of Malaria Reported in Aurora", "country": "United States", "city": "Aurora", "id": "5412347", "latitude": 39.72943, "longitude": -104.83192}, {"headline": "Manchester Residents Recieve Influenza vaccine", "country": "United Kingdom", "city": "Manchester", "id": "2643123", "latitude": 53.48095, "longitude": -2.23743}, {"headline": "Zika spreads to Kamphaeng Phet", "country": "Thailand", "city": "Kamphaeng Phet", "id": "1153090", "latitude": 16.48344, "longitude": 99.52153}, {"headline": "Rotavirus Vaccine is now Required in Labasa", "country": "Fiji", "city": "Labasa", "id": "2204582", "latitude": -16.4332, "longitude": 179.36451}, {"headline": "The Spread of Hepatitis E in Fargo has been Confirmed", "country": "United States", "city": "Fargo", "id": "5059163", "latitude": 46.87719, "longitude": -96.7898}, {"headline": "Zika Outbreak in Mexicali", "country": "Mexico", "city": "Mexicali", "id": "3996069", "latitude": 32.62781, "longitude": -115.45446}, {"headline": "West Nile Virus Keeps Spreading in Hauppauge", "country": "United States", "city": "Hauppauge", "id": "5120228", "latitude": 40.82565, "longitude": -73.20261}, {"headline": "Bronchitis Keeps Spreading in Hayward", "country": "United States", "city": "Hayward", "id": "5355933", "latitude": 37.66882, "longitude": -122.0808}, {"headline": "Schools in Coamo Closed Due to Rhinovirus Outbreak", "country": null, "city": null, "id": "None", "latitude": null, "longitude": null}, {"headline": "Zika arrives in Dangriga", "country": null, "city": null, "id": "None", "latitude": null, "longitude": null}, {"headline": "Zika spreads to Plant City", "country": "United States", "city": "Plant City", "id": "4168773", "latitude": 28.01888, "longitude": -82.11469}, {"headline": "Chlamydia Exposure in Sanaa", "country": "Yemen", "city": "Sanaa", "id": "71137", "latitude": 15.35472, "longitude": 44.20667}, {"headline": "Zika Reported in North Miami Beach", "country": "United States", "city": "North Miami Beach", "id": "4166233", "latitude": 25.93315, "longitude": -80.16255}, {"headline": "More Patients in Kensington are Getting Diagnosed with Varicella", "country": "United States", "city": "Kensington", "id": "5123280", "latitude": 40.64621, "longitude": -73.97069}, {"headline": "More Patients in Maynard are Getting Diagnosed with Syphilis", "country": null, "city": null, "id": "None", "latitude": null, "longitude": null}, {"headline": "Case of West Nile Virus Reported in Riverside", "country": "United States", "city": "Riverside", "id": "5387877", "latitude": 33.95335, "longitude": -117.39616},